{"shop_tel": "无", "open_time": "尚无营业时间", "shop_lat": "36.5477159998346", "shop_name": "食为天粮行(夏都路店)", "shop_lng": "101.712299999839", "shop_tag": "", "street_address": "夏都路1号"}
{"shop_tel": "无", "open_time": "尚无营业时间", "shop_lat": "26.603199", "shop_name": "中大国际购物中心", "shop_lng": "106.721454", "shop_tag": "", "street_address": "大营坡"}
{"shop_tel": "", "open_time": "8:30-21:00", "shop_lat": "30.5953437", "shop_name": "中百仓储(公安路店)", "shop_lng": "114.2985097", "shop_tag": "", "street_address": "京汉大道中城国际广场-1楼"}
{"shop_tel": "无", "open_time": "尚无营业时间", "shop_lat": "36.187596028646", "shop_name": "ONLY(泰安中百店)", "shop_lng": "117.12551595052", "shop_tag": "", "street_address": "财源大街90号中百大厦"}
{"shop_tel": "", "open_time": "9：00-21：30", "shop_lat": "35.407910698785", "shop_name": "银座商城(太白东路店)", "shop_lng": "116.60605957031", "shop_tag": "", "street_address": "太白东路51号(琵琶山路口)"}
{"shop_tel": "", "open_time": "尚无营业时间", "shop_lat": "28.6712950000805", "shop_name": "精功眼镜(解放南路店)", "shop_lng": "121.436823999923", "shop_tag": "", "street_address": "解放南路193-2号"}
{"shop_tel": "", "open_time": "尚无营业时间", "shop_lat": "36.6100333", "shop_name": "华明烟酒食品经销部", "shop_lng": "101.7772001", "shop_tag": "", "street_address": "南山路30-20号"}
{"shop_tel": "", "open_time": "尚无营业时间", "shop_lat": "26.593833550347", "shop_name": "同创泛亚酒店用品", "shop_lng": "106.71762641059", "shop_tag": "", "street_address": "宝山酒店用品市场"}
{"shop_tel": "无", "open_time": "尚无营业时间", "shop_lat": "30.618399793837", "shop_name": "心语超市", "shop_lng": "114.32076090495", "shop_tag": "", "street_address": "沿江大道"}
{"shop_tel": "无", "open_time": "尚无营业时间", "shop_lat": "36.187016", "shop_name": "中和休闲", "shop_lng": "117.124305999525", "shop_tag": "", "street_address": "财源街133号中百斜对面"}
{"shop_tel": "", "open_time": "10:00-19:00", "shop_lat": "35.4071700000578", "shop_name": "木木烘焙(太白路店)", "shop_lng": "116.600099999873", "shop_tag": "", "street_address": "太白路太东南门西30米路北"}
{"shop_tel": "无", "open_time": "尚无营业时间", "shop_lat": "28.610428", "shop_name": "名扬眼镜", "shop_lng": "121.419262", "shop_tag": "", "street_address": "洪家街道(近洪家老车站)"}
{"shop_tel": "无", "open_time": "尚无营业时间", "shop_lat": "28.7602700000225", "shop_name": "晨光眼镜", "shop_lng": "121.497489999985", "shop_tag": "", "street_address": "府前街283号浙江眼镜城164号商铺"}
{"shop_tel": "无", "open_time": "8：00-22：00", "shop_lat": "28.8483669", "shop_name": "飞达眼镜世界", "shop_lng": "121.1345488", "shop_tag": "", "street_address": "兰天路"}
{"shop_tel": "", "open_time": "每天 00:00 - 24:00", "shop_lat": "28.76544804", "shop_name": "博联眼镜", "shop_lng": "121.4984058", "shop_tag": "", "street_address": "杜桥大汾工业区(近s28高速口)"}
{"shop_tel": "", "open_time": "尚无营业时间", "shop_lat": "36.61270515", "shop_name": "汇源烟酒茶", "shop_lng": "101.8042394", "shop_tag": "", "street_address": "大众街292-10号"}
{"shop_tel": "", "open_time": "尚无营业时间", "shop_lat": "26.5935", "shop_name": "老六肠旺面", "shop_lng": "106.718789", "shop_tag": "", "street_address": "宝山北路213号"}
{"shop_tel": "", "open_time": "尚无营业时间", "shop_lat": "26.594468", "shop_name": "岩·法式西点", "shop_lng": "106.718057", "shop_tag": "", "street_address": "宝山北路,日报社斜对面,新年酒店旁"}
{"shop_tel": "无", "open_time": "尚无营业时间", "shop_lat": "26.5936754522641", "shop_name": "张记盆景酸辣烫", "shop_lng": "106.718283519051", "shop_tag": "", "street_address": "敦临巷25号附近"}
{"shop_tel": "无", "open_time": "尚无营业时间", "shop_lat": "26.5942499999268", "shop_name": "王记饭店", "shop_lng": "106.718081999992", "shop_tag": "", "street_address": "宝山北路相宝山批发市场内(贵州日报对面)"}
{"shop_tel": "无", "open_time": "尚无营业时间", "shop_lat": "30.576668023003", "shop_name": "Howsdor超市(武汉关总店)", "shop_lng": "114.29729817708", "shop_tag": "", "street_address": "江汉路4号"}
{"shop_tel": "无", "open_time": "尚无营业时间", "shop_lat": "30.616873", "shop_name": "迷城酒廊", "shop_lng": "114.32302", "shop_tag": "", "street_address": "汉口江滩二期公园张自忠路"}
{"shop_tel": "", "open_time": "09:00-21:00", "shop_lat": "36.187458", "shop_name": "福牛记(中百店)", "shop_lng": "117.12418", "shop_tag": "", "street_address": "财源街中百美食林"}
{"shop_tel": "", "open_time": "09:00-21:00", "shop_lat": "35.409596354167", "shop_name": "优百滋鲜奶生活馆", "shop_lng": "116.59431694878", "shop_tag": "", "street_address": "半截阁路实验小学对过路北"}
{"shop_tel": "无", "open_time": "尚无营业时间", "shop_lat": "28.6776300000044", "shop_name": "亮凡眼镜", "shop_lng": "121.409331999847", "shop_tag": "", "street_address": "加止加中路49号"}
{"shop_tel": "无", "open_time": "尚无营业时间", "shop_lat": "28.748878", "shop_name": "金雷眼镜", "shop_lng": "121.494973", "shop_tag": "", "street_address": "滨海路"}
{"shop_tel": "", "open_time": "尚无营业时间", "shop_lat": "28.847488", "shop_name": "木缘新豆花(人民路五中店)", "shop_lng": "121.134063", "shop_tag": "", "street_address": "人民路360号五中斜对面"}
{"shop_tel": "无", "open_time": "尚无营业时间", "shop_lat": "28.7645881273772", "shop_name": "小红帽西饼屋", "shop_lng": "121.499859508021", "shop_tag": "", "street_address": "杜东路242号"}
{"shop_tel": "", "open_time": "尚无营业时间", "shop_lat": "36.620706", "shop_name": "和协酒类批发", "shop_lng": "101.806553", "shop_tag": "", "street_address": "滨河南路8-4号"}
{"shop_tel": "", "open_time": "09:00-22:00", "shop_lat": "26.5771799995589", "shop_name": "但家香酥鸭(中山路店)", "shop_lng": "106.710719999884", "shop_tag": "", "street_address": "中山西路41号"}
{"shop_tel": "无", "open_time": "尚无营业时间", "shop_lat": "26.589167", "shop_name": "麦家乐饼屋", "shop_lng": "106.726246", "shop_tag": "", "street_address": "旭东路233号"}
{"shop_tel": "", "open_time": "尚无营业时间", "shop_lat": "26.5954851", "shop_name": "新雅风味园", "shop_lng": "106.7184325", "shop_tag": "", "street_address": "宝山北路415号(大营路)"}
{"shop_tel": "", "open_time": "尚无营业时间", "shop_lat": "30.5762098642142", "shop_name": "A咖时尚饮品(园缘圆店)", "shop_lng": "114.297444820404", "shop_tag": "", "street_address": "江汉路步行街61号园缘圆1楼(近好乐迪)"}
{"shop_tel": "无", "open_time": "尚无营业时间", "shop_lat": "30.575149", "shop_name": "小靓蒸虾", "shop_lng": "114.309617", "shop_tag": "", "street_address": "三阳路临江大道"}
{"shop_tel": "", "open_time": "10:00-20:00", "shop_lat": "36.18735714", "shop_name": "丸来玩趣", "shop_lng": "117.1270445", "shop_tag": "", "street_address": "金桥服装城B座3楼"}
{"shop_tel": "", "open_time": "每天 06:00 - 13:00", "shop_lat": "28.6764", "shop_name": "每天见面早餐店", "shop_lng": "121.41164", "shop_tag": "", "street_address": "文明路(近葭东路)"}
{"shop_tel": "无", "open_time": "尚无营业时间", "shop_lat": "28.7548489999823", "shop_name": "阿二骨煲", "shop_lng": "121.493068999909", "shop_tag": "", "street_address": "嵩山路358号"}
{"shop_tel": "", "open_time": "尚无营业时间", "shop_lat": "28.8472210000262", "shop_name": "大田大排面", "shop_lng": "121.137396999844", "shop_tag": "", "street_address": "台州府路251号"}
{"shop_tel": "无", "open_time": "尚无营业时间", "shop_lat": "28.7428950000313", "shop_name": "丰乐糕饼店", "shop_lng": "121.479424999976", "shop_tag": "", "street_address": "南大路"}
{"shop_tel": "无", "open_time": "尚无营业时间", "shop_lat": "36.620160999925", "shop_name": "王家牛肉面馆", "shop_lng": "101.806635000068", "shop_tag": "", "street_address": "共和路5号"}
{"shop_tel": "", "open_time": "每天 11:00 - 22:30", "shop_lat": "26.58215482", "shop_name": "我爱鱼头(南国花锦)", "shop_lng": "106.7127395", "shop_tag": "", "street_address": "南国花锦7F号"}
{"shop_tel": "无", "open_time": "尚无营业时间", "shop_lat": "26.585763", "shop_name": "顺风饼屋", "shop_lng": "106.723008", "shop_tag": "", "street_address": "旭东路43号"}
{"shop_tel": "无", "open_time": "尚无营业时间", "shop_lat": "26.603098", "shop_name": "黔南第一家鱿鱼炖土鸡", "shop_lng": "106.721472", "shop_tag": "", "street_address": "银佳花园"}
{"shop_tel": "", "open_time": "10:00-21:00", "shop_lat": "30.57699", "shop_name": "业记甜品", "shop_lng": "114.29089", "shop_tag": "", "street_address": "民生路悦荟广场B座6号门41A(民生路)"}
{"shop_tel": "", "open_time": "7：00-21：00", "shop_lat": "30.587445", "shop_name": "真功夫(万商白马店)", "shop_lng": "114.29881", "shop_tag": "", "street_address": "汉口万商白马服饰批发市场1楼"}
{"shop_tel": "", "open_time": "每天 10: 00 -- 21: 00", "shop_lat": "36.187875434028", "shop_name": "国足臭豆腐", "shop_lng": "117.1271484375", "shop_tag": "", "street_address": "财源大街46号金桥服装城对面(站牌东临)"}
{"shop_tel": "", "open_time": "09:00—21:00", "shop_lat": "35.4076609999903", "shop_name": "恒记甜品", "shop_lng": "116.589238000039", "shop_tag": "", "street_address": "太白路运河城1楼"}
{"shop_tel": "", "open_time": "尚无营业时间", "shop_lat": "28.673308999994", "shop_name": "春风快餐", "shop_lng": "121.426319999788", "shop_tag": "", "street_address": "岩屿路89号"}
{"shop_tel": "无", "open_time": "尚无营业时间", "shop_lat": "28.7628889999735", "shop_name": "中兴饭店", "shop_lng": "121.500063000146", "shop_tag": "", "street_address": "南大路196号"}
{"shop_tel": "无", "open_time": "尚无营业时间", "shop_lat": "28.8450049999589", "shop_name": "高记面道", "shop_lng": "121.134559000073", "shop_tag": "", "street_address": "人民路256号"}
{"shop_tel": "", "open_time": "尚无营业时间", "shop_lat": "28.7620665919651", "shop_name": "派斯俊西饼屋", "shop_lng": "121.498445195265", "shop_tag": "", "street_address": "杜川路226号"}
{"shop_tel": "无", "open_time": "尚无营业时间", "shop_lat": "36.617213", "shop_name": "清真老城门酸奶", "shop_lng": "101.806038", "shop_tag": "", "street_address": "为民巷(近马步芳公馆)"}
{"shop_tel": "", "open_time": "11：30-21：00", "shop_lat": "26.56847776", "shop_name": "57℃湘(花果园店)", "shop_lng": "106.6891906", "shop_tag": "", "street_address": "花果园1号Garland花果园购物中心3F-12-1铺(近花果园中心湖)"}
{"shop_tel": "无", "open_time": "尚无营业时间", "shop_lat": "26.5857058161992", "shop_name": "地下铁", "shop_lng": "106.723255308918", "shop_tag": "", "street_address": "旭东路8号"}
{"shop_tel": "", "open_time": "每天 11:00 - 01:00", "shop_lat": "26.5859614", "shop_name": "卉舍", "shop_lng": "106.7230857", "shop_tag": "", "street_address": "旭东路59号(近师大)"}
{"shop_tel": "", "open_time": "尚无营业时间", "shop_lat": "26.60318", "shop_name": "釜山料理", "shop_lng": "106.72153", "shop_tag": "", "street_address": "大营坡中大国际广场2楼"}
{"shop_tel": "", "open_time": "尚无营业时间", "shop_lat": "30.57791", "shop_name": "阿姨奶茶(前进四路店)", "shop_lng": "114.28834", "shop_tag": "", "street_address": "前进四路46号近中山大道(江汉路)"}
{"shop_tel": "无", "open_time": "尚无营业时间", "shop_lat": "30.58777099", "shop_name": "杨铭宇黄焖鸡米饭", "shop_lng": "114.2987042", "shop_tag": "", "street_address": "江岸区胜利街118号"}
{"shop_tel": "", "open_time": "10:00-23:00", "shop_lat": "36.19262", "shop_name": "西楚味道苏菜馆", "shop_lng": "117.10844", "shop_tag": "", "street_address": "康复路14号(金钱柜对面)"}
{"shop_tel": "无", "open_time": "尚无营业时间", "shop_lat": "35.40587758", "shop_name": "ivy s cake", "shop_lng": "116.5886095", "shop_tag": "", "street_address": "运河路秀水城内"}
{"shop_tel": "", "open_time": "每天 5: 00 -- 19: 30", "shop_lat": "28.6766600000255", "shop_name": "九千碗", "shop_lng": "121.420160000026", "shop_tag": "", "street_address": "星明路(近椒江五中)"}
{"shop_tel": "", "open_time": "尚无营业时间", "shop_lat": "28.7600880000137", "shop_name": "食可小炒", "shop_lng": "121.50684600007", "shop_tag": "", "street_address": "下街95号"}
{"shop_tel": "", "open_time": "7:00~凌晨1:30", "shop_lat": "28.8452165", "shop_name": "沙县小吃人民路店", "shop_lng": "121.1342666", "shop_tag": "", "street_address": "人民路191号(近鹊墩路)"}
{"shop_tel": "", "open_time": "尚无营业时间", "shop_lat": "28.762772623698", "shop_name": "杜桥绝味鸭脖", "shop_lng": "121.49840033637", "shop_tag": "", "street_address": "杜桥镇杜川路179号"}
{"shop_tel": "无", "open_time": "尚无营业时间", "shop_lat": "36.6373370000319", "shop_name": "萨力海手抓面食馆", "shop_lng": "101.74891900005", "shop_tag": "", "street_address": "虎台二巷9号"}
{"shop_tel": "", "open_time": "13:00——01:00", "shop_lat": "26.57236998", "shop_name": "life生活阅读", "shop_lng": "106.7166395", "shop_tag": "", "street_address": "富水南路191号全林国际广场A栋29楼6号(近星力购物广场)"}
{"shop_tel": "无", "open_time": "10: 00 -- 22: 00", "shop_lat": "26.58573332", "shop_name": "毕节特色名小吃", "shop_lng": "106.7233899", "shop_tag": "", "street_address": "旭东路煤矿村(近师大加油站)"}
{"shop_tel": "", "open_time": "10:00-24:00", "shop_lat": "26.64419584", "shop_name": "逸庭", "shop_lng": "106.6248307", "shop_tag": "", "street_address": "金阳新区林城东路8号贵阳万丽酒店1楼(市行政中心对面)"}
{"shop_tel": "无", "open_time": "尚无营业时间", "shop_lat": "26.43317", "shop_name": "泰熙家新式韩国料理(花溪店)", "shop_lng": "106.6769", "shop_tag": "", "street_address": "十字街民主路30号(十字街德克士对面)"}
{"shop_tel": "无", "open_time": "每天 8: 00 -- 24: 00", "shop_lat": "30.5779", "shop_name": "黄焖鸡米饭", "shop_lng": "114.28803", "shop_tag": "", "street_address": "江汉区前进四路31号"}
{"shop_tel": "", "open_time": "尚无营业时间", "shop_lat": "35.40229722", "shop_name": "老济宁内府菜", "shop_lng": "116.5885809", "shop_tag": "", "street_address": "竹竿巷南首东大寺南100米"}
{"shop_tel": "", "open_time": "尚无营业时间", "shop_lat": "28.6757078597773", "shop_name": "小潘麦虾店", "shop_lng": "121.420963396056", "shop_tag": "", "street_address": "星明路46号"}
{"shop_tel": "", "open_time": "尚无营业时间", "shop_lat": "28.7616525", "shop_name": "新川德自助火锅(杜桥店)", "shop_lng": "121.5046168", "shop_tag": "", "street_address": "杜桥镇环城南路最东端(大世界东面100米，原忆口香龙虾)"}
{"shop_tel": "无", "open_time": "尚无营业时间", "shop_lat": "28.7617469999735", "shop_name": "阿旺快餐", "shop_lng": "121.492173000222", "shop_tag": "", "street_address": "杜桥镇解放街381号"}
{"shop_tel": "无", "open_time": "尚无营业时间", "shop_lat": "28.76306", "shop_name": "平安快餐", "shop_lng": "121.49855", "shop_tag": "", "street_address": "府前街(近台州医院)"}
{"shop_tel": "", "open_time": "16：30—02：30", "shop_lat": "36.6314200000319", "shop_name": "老字号胡赛烤肉面片馆", "shop_lng": "101.74604500005", "shop_tag": "", "street_address": "西关大街"}
{"shop_tel": "无", "open_time": "尚无营业时间", "shop_lat": "26.575536", "shop_name": "鱼旨寿司(亨特国际店)", "shop_lng": "106.720261", "shop_tag": "", "street_address": "亨特国际B1楼(近横店电影城)"}
{"shop_tel": "", "open_time": "19:00-次日02:00", "shop_lat": "26.59984", "shop_name": "酒点半", "shop_lng": "106.63871", "shop_tag": "", "street_address": "世纪城金源街龙泉苑3幢正对面(近红黄蓝幼儿园)"}
{"shop_tel": "无", "open_time": "尚无营业时间", "shop_lat": "26.433147", "shop_name": "德圆包点", "shop_lng": "106.676526", "shop_tag": "", "street_address": "民主路47号"}
{"shop_tel": "", "open_time": "每天 10:00 - 22:00", "shop_lat": "30.57849", "shop_name": "豆你豆我", "shop_lng": "114.29251", "shop_tag": "", "street_address": "江汉路万达广场C座2号门入口处(近万达易记酸辣粉)"}
{"shop_tel": "", "open_time": "尚无营业时间", "shop_lat": "36.1895885", "shop_name": "同心饭店", "shop_lng": "117.1375513", "shop_tag": "", "street_address": "虎山路83号"}
{"shop_tel": "", "open_time": "尚无营业时间", "shop_lat": "35.58012891", "shop_name": "正宗微山湖鲜鱼馆", "shop_lng": "116.9968757", "shop_tag": "", "street_address": "春秋路(六艺城南门东)"}
{"shop_tel": "无", "open_time": "尚无营业时间", "shop_lat": "28.675693088108", "shop_name": "茶Cc奶茶店", "shop_lng": "121.42124376085", "shop_tag": "", "street_address": "星明路42号(中山小区)"}
{"shop_tel": "", "open_time": "尚无营业时间", "shop_lat": "28.768521", "shop_name": "火锅", "shop_lng": "121.491785", "shop_tag": "", "street_address": "杜北路521号(东部大酒店一楼)"}
{"shop_tel": "无", "open_time": "尚无营业时间", "shop_lat": "28.7369590000313", "shop_name": "金山快餐", "shop_lng": "121.480999999976", "shop_tag": "", "street_address": "南大路"}
{"shop_tel": "", "open_time": "尚无营业时间", "shop_lat": "28.8330219999721", "shop_name": "林弟快餐", "shop_lng": "121.125538999988", "shop_tag": "", "street_address": "观澜路"}
{"shop_tel": "无", "open_time": "尚无营业时间", "shop_lat": "36.6289950000275", "shop_name": "虎台清真餐厅", "shop_lng": "101.750573999974", "shop_tag": "", "street_address": "新宁路5号-1号"}
{"shop_tel": "", "open_time": "尚无营业时间", "shop_lat": "26.58622513", "shop_name": "土风豆米火锅店(陕西路店)", "shop_lng": "106.7141259", "shop_tag": "", "street_address": "陕西路副食果品公司大院内(近延安中路)"}
{"shop_tel": "", "open_time": "尚无营业时间", "shop_lat": "26.599067", "shop_name": "北京吊烤香酥鸡", "shop_lng": "106.637384", "shop_tag": "", "street_address": "龙泉苑S2区3段2号(实验高中后门，柴禾禧院往里直行700m)"}
{"shop_tel": "无", "open_time": "尚无营业时间", "shop_lat": "26.439752604167", "shop_name": "菠萝蜜茶饮(贵大店)", "shop_lng": "106.6760538737", "shop_tag": "", "street_address": "龙蟠路"}
{"shop_tel": "无", "open_time": "尚无营业时间", "shop_lat": "30.5289320000295", "shop_name": "桂园食堂", "shop_lng": "114.375141999928", "shop_tag": "", "street_address": "八一路483号武汉大学校武汉大学校明珠路(电子信息学院对面)"}
{"shop_tel": "", "open_time": "尚无营业时间", "shop_lat": "30.5777710000547", "shop_name": "百丽专卖店(百丽六店)", "shop_lng": "114.290666999811", "shop_tag": "", "street_address": "前进路(大洋百货对面)"}
{"shop_tel": "无", "open_time": "尚无营业时间", "shop_lat": "36.1887360003046", "shop_name": "泰安市北方劳务有限公司", "shop_lng": "117.137729999915", "shop_tag": "", "street_address": "海普写字楼"}
{"shop_tel": "无", "open_time": "尚无营业时间", "shop_lat": "35.5780300003448", "shop_name": "小圣地酒店", "shop_lng": "116.988330000377", "shop_tag": "", "street_address": "大成路华灯街"}
{"shop_tel": "无", "open_time": "尚无营业时间", "shop_lat": "28.6760840000343", "shop_name": "面对面", "shop_lng": "121.421484000178", "shop_tag": "", "street_address": "星明路51号"}
{"shop_tel": "无", "open_time": "尚无营业时间", "shop_lat": "28.7689460000408", "shop_name": "江西小炒", "shop_lng": "121.493063999917", "shop_tag": "", "street_address": "杜北路305号"}
{"shop_tel": "无", "open_time": "尚无营业时间", "shop_lat": "28.7418804840663", "shop_name": "兰州拉面", "shop_lng": "121.480570490359", "shop_tag": "", "street_address": "南大路"}
{"shop_tel": "无", "open_time": "尚无营业时间", "shop_lat": "28.8416679999589", "shop_name": "上海汤包王", "shop_lng": "121.134963000073", "shop_tag": "", "street_address": "人民路132号"}
{"shop_tel": "无", "open_time": "尚无营业时间", "shop_lat": "36.6296330000319", "shop_name": "李秀英面片虎台店", "shop_lng": "101.75041400005", "shop_tag": "", "street_address": "西关大街67号"}
{"shop_tel": "", "open_time": "尚无营业时间", "shop_lat": "27.063076", "shop_name": "轩愉饭店", "shop_lng": "106.958805", "shop_tag": "", "street_address": "环城北路38号"}
{"shop_tel": "", "open_time": "10：00-22：00", "shop_lat": "26.59195871", "shop_name": "跷脚牛肉", "shop_lng": "106.7067704", "shop_tag": "", "street_address": "环城北路234号"}
{"shop_tel": "", "open_time": "尚无营业时间", "shop_lat": "26.60897294", "shop_name": "黔滋香精品酸汤鱼", "shop_lng": "106.63878", "shop_tag": "", "street_address": "金阳新区世纪城龙耀苑(西区东南门)"}
{"shop_tel": "", "open_time": "尚无营业时间", "shop_lat": "26.439884045709", "shop_name": "旺旺西饼", "shop_lng": "106.676281972062", "shop_tag": "", "street_address": "学子路18号"}
{"shop_tel": "无", "open_time": "尚无营业时间", "shop_lat": "30.5289299999552", "shop_name": "肯德基(武大店)", "shop_lng": "114.374869999982", "shop_tag": "", "street_address": "八一路483号武汉大学门口"}
{"shop_tel": "无", "open_time": "尚无营业时间", "shop_lat": "30.5040979999337", "shop_name": "DI DRDER-HOMME", "shop_lng": "114.423542999928", "shop_tag": "", "street_address": "光谷步行街二期西班牙风情街"}
{"shop_tel": "无", "open_time": "尚无营业时间", "shop_lat": "30.5065898", "shop_name": "MUJI(世界城广场店)", "shop_lng": "114.4053608", "shop_tag": "", "street_address": "珞瑜路光谷世界城广场"}
{"shop_tel": "", "open_time": "尚无营业时间", "shop_lat": "36.182391764323", "shop_name": "哈尔滨轴承总厂(灵山大街店)", "shop_lng": "117.12432644314", "shop_tag": "", "street_address": "灵山大街128号"}
{"shop_tel": "", "open_time": "尚无营业时间", "shop_lat": "35.590119", "shop_name": "曲阜国际饭店", "shop_lng": "117.000069", "shop_tag": "", "street_address": "弘道路2号(近孔府)"}
{"shop_tel": "", "open_time": "尚无营业时间", "shop_lat": "28.671713999994", "shop_name": "福建沙县小吃", "shop_lng": "121.424876999788", "shop_tag": "", "street_address": "岩屿路84号(云健社区卫生服务站北)"}
{"shop_tel": "", "open_time": "尚无营业时间", "shop_lat": "28.7691566563815", "shop_name": "一品轩面馆", "shop_lng": "121.495397272875", "shop_tag": "", "street_address": "杜北路与杜川路交叉口附近"}
{"shop_tel": "", "open_time": "尚无营业时间", "shop_lat": "28.8413319999589", "shop_name": "龙相公酒楼", "shop_lng": "121.134616000073", "shop_tag": "", "street_address": "人民路119号"}
{"shop_tel": "无", "open_time": "尚无营业时间", "shop_lat": "36.6395539999513", "shop_name": "万事缘小吃", "shop_lng": "101.754092000059", "shop_tag": "", "street_address": "海晏路10号"}
{"shop_tel": "无", "open_time": "尚无营业时间", "shop_lat": "27.060641", "shop_name": "金凤串串香", "shop_lng": "106.960204", "shop_tag": "", "street_address": "磷都大道"}
{"shop_tel": "", "open_time": "尚无营业时间", "shop_lat": "26.59119391", "shop_name": "宗江老川菜", "shop_lng": "106.7034505", "shop_tag": "", "street_address": "北京路202号煤炭大厦"}
{"shop_tel": "", "open_time": "尚无营业时间", "shop_lat": "26.600939", "shop_name": "龙液酸汤乌鱼府", "shop_lng": "106.632483", "shop_tag": "", "street_address": "金源街(中)十字路口红绿灯旁"}
{"shop_tel": "", "open_time": "尚无营业时间", "shop_lat": "26.43990296", "shop_name": "惠诚滋知(花溪三店)", "shop_lng": "106.6768269", "shop_tag": "", "street_address": "花溪大道南段2934号(海狮楼花溪湿地公园正对面)"}
{"shop_tel": "无", "open_time": "尚无营业时间", "shop_lat": "30.5269240000086", "shop_name": "学生食堂", "shop_lng": "114.358563999982", "shop_tag": "", "street_address": "武汉大学信息学部(长江传媒大厦北)"}
{"shop_tel": "", "open_time": "尚无营业时间", "shop_lat": "30.503781", "shop_name": "ME&CITY KIDS(光谷世界城旗舰店)", "shop_lng": "114.403379", "shop_tag": "", "street_address": "光谷西班牙风情街B栋107米喜迪"}
{"shop_tel": "", "open_time": "尚无营业时间", "shop_lat": "30.5027870000006", "shop_name": "椰岛造型(光谷三店)", "shop_lng": "114.405762999964", "shop_tag": "", "street_address": "光谷二期西班牙风情街斗牛士广场2楼"}
{"shop_tel": "", "open_time": "09:00-11:00", "shop_lat": "36.19259765625", "shop_name": "哈尔滨老菜馆", "shop_lng": "117.1078523763", "shop_tag": "", "street_address": "康复路16-13号"}
{"shop_tel": "无", "open_time": "尚无营业时间", "shop_lat": "36.182090999797", "shop_name": "泰龙佳肴炸鸡店", "shop_lng": "117.125181999782", "shop_tag": "", "street_address": "旧镇路1号"}
{"shop_tel": "无", "open_time": "尚无营业时间", "shop_lat": "35.5954200000226", "shop_name": "牧兴鲜奶吧", "shop_lng": "116.969080000412", "shop_tag": "", "street_address": "师范大学西公寓里"}
{"shop_tel": "", "open_time": "尚无营业时间", "shop_lat": "28.67182", "shop_name": "台湾饭团", "shop_lng": "121.42477", "shop_tag": "", "street_address": "岩屿路90号"}
{"shop_tel": "无", "open_time": "尚无营业时间", "shop_lat": "28.758268500434", "shop_name": "临海小吃馆", "shop_lng": "121.49945936415", "shop_tag": "", "street_address": "杜西路480号"}
{"shop_tel": "", "open_time": "尚无营业时间", "shop_lat": "28.7651828831142", "shop_name": "温州面堂香海鲜面", "shop_lng": "121.496671067104", "shop_tag": "", "street_address": "杜川路128号"}
{"shop_tel": "无", "open_time": "尚无营业时间", "shop_lat": "28.8275570000079", "shop_name": "江南水乡", "shop_lng": "121.134194999835", "shop_tag": "", "street_address": "七一河路57号"}
{"shop_tel": "无", "open_time": "尚无营业时间", "shop_lat": "36.6364440000319", "shop_name": "马老吉小吃", "shop_lng": "101.74839400005", "shop_tag": "", "street_address": "虎台二巷11号"}
{"shop_tel": "", "open_time": "每天 10: 00 -- 22: 30", "shop_lat": "26.570273", "shop_name": "观塘甜品", "shop_lng": "106.693447", "shop_tag": "", "street_address": "花果园购物中心1楼(电影院对面)"}
{"shop_tel": "无", "open_time": "尚无营业时间", "shop_lat": "26.523639051649", "shop_name": "北京华联(黔江路店)", "shop_lng": "106.70247639974", "shop_tag": "", "street_address": "小河新村云凯熙园1层(近黔江路)"}
{"shop_tel": "无", "open_time": "尚无营业时间", "shop_lat": "26.600512", "shop_name": "韩朝乐天", "shop_lng": "106.632187", "shop_tag": "", "street_address": "金源街120号"}
{"shop_tel": "无", "open_time": "尚无营业时间", "shop_lat": "26.4402319996936", "shop_name": "地心酒吧", "shop_lng": "106.676858000003", "shop_tag": "", "street_address": "花溪大道2689号"}
{"shop_tel": "无", "open_time": "9:00到21:30", "shop_lat": "30.5311701500086", "shop_name": "绿洲小吃店", "shop_lng": "114.355341699982", "shop_tag": "", "street_address": "珞狮路43附2号"}
{"shop_tel": "", "open_time": "尚无营业时间", "shop_lat": "30.504023", "shop_name": "悸动烧仙草", "shop_lng": "114.403188", "shop_tag": "", "street_address": "光谷步行街1楼公共区域与2期交汇处"}
{"shop_tel": "无", "open_time": "尚无营业时间", "shop_lat": "30.55561803", "shop_name": "汉阳造文化创意产业园", "shop_lng": "114.2670004", "shop_tag": "", "street_address": "龟山北路1号(近鹦鹉大道)"}
{"shop_tel": "无", "open_time": "尚无营业时间", "shop_lat": "36.1926340001523", "shop_name": "乾顺饭庄", "shop_lng": "117.105733999373", "shop_tag": "", "street_address": "康复路西首"}
{"shop_tel": "", "open_time": "8:00-21:00", "shop_lat": "35.5944900001749", "shop_name": "顶好烘焙房(五马祠街店)", "shop_lng": "116.999559999683", "shop_tag": "", "street_address": "五马祠街东首牌坊下(近孔子六艺城)"}
{"shop_tel": "", "open_time": "08:30-21:00", "shop_lat": "36.1875899996448", "shop_name": "快可立休闲餐厅", "shop_lng": "117.125159999715", "shop_tag": "", "street_address": "中百大厦佳乐家超市入口处"}
{"shop_tel": "无", "open_time": "尚无营业时间", "shop_lat": "28.671160999994", "shop_name": "口不离包子", "shop_lng": "121.425191999788", "shop_tag": "", "street_address": "岩屿路39号"}
{"shop_tel": "无", "open_time": "尚无营业时间", "shop_lat": "28.758856608073", "shop_name": "必客来火锅烙锅居", "shop_lng": "121.49959201389", "shop_tag": "", "street_address": "杜西路281号"}
{"shop_tel": "", "open_time": "10:00-23:00", "shop_lat": "28.7639454915025", "shop_name": "超级奶爸", "shop_lng": "121.497297727509", "shop_tag": "", "street_address": "杜川路157号"}
{"shop_tel": "", "open_time": "每天 10:00 - 22:00", "shop_lat": "28.8484", "shop_name": "大拇指宾馆饭店", "shop_lng": "121.11545", "shop_tag": "", "street_address": "广文路97号(近文化路)"}
{"shop_tel": "无", "open_time": "尚无营业时间", "shop_lat": "36.6368830000319", "shop_name": "大胡子黄焖羊肉", "shop_lng": "101.74864200005", "shop_tag": "", "street_address": "虎台二巷11号"}
{"shop_tel": "", "open_time": "每天 10: 30 -- 21: 30", "shop_lat": "26.58215483", "shop_name": "卢氏椒麻香锅", "shop_lng": "106.7127399", "shop_tag": "", "street_address": "喷水池南国花锦7楼(近百度烤肉)"}
{"shop_tel": "无", "open_time": "尚无营业时间", "shop_lat": "26.516859809028", "shop_name": "明溪便利店", "shop_lng": "106.70582980686", "shop_tag": "", "street_address": "清水江路8号"}
{"shop_tel": "无", "open_time": "尚无营业时间", "shop_lat": "26.60136", "shop_name": "一中老素粉", "shop_lng": "106.62286", "shop_tag": "", "street_address": "金阳新区碧海观山旁(近金阳南路一中)"}
{"shop_tel": "无", "open_time": "尚无营业时间", "shop_lat": "26.441323593009", "shop_name": "感觉", "shop_lng": "106.676857786062", "shop_tag": "", "street_address": "花溪大道南段2826号"}
{"shop_tel": "", "open_time": "尚无营业时间", "shop_lat": "30.521581", "shop_name": "三镇民生甜食馆(广埠屯店)", "shop_lng": "114.365926", "shop_tag": "", "street_address": "武昌珞喻路广埠屯电子一条街大福汇美食广场内(近广埠屯招商银行)"}
{"shop_tel": "", "open_time": "每天 10:00 - 22:00", "shop_lat": "30.506525336372", "shop_name": "Edora 法式甜点(光谷店)", "shop_lng": "114.40419325087", "shop_tag": "", "street_address": "光谷世界城广场B1楼(麥當勞斜對面、鮮芋仙對面)"}
{"shop_tel": "无", "open_time": "尚无营业时间", "shop_lat": "30.506261", "shop_name": "满记甜品(世界城广场店)", "shop_lng": "114.4045259", "shop_tag": "", "street_address": "珞瑜路光谷世界城广场负一楼(手扶电梯)"}
{"shop_tel": "", "open_time": "12:00-23:00", "shop_lat": "30.5878100000028", "shop_name": "老时光咖啡馆", "shop_lng": "114.299599999981", "shop_tag": "", "street_address": "黎黄陂路30号(近中医学院)"}
{"shop_tel": "无", "open_time": "尚无营业时间", "shop_lat": "30.58599", "shop_name": "何嫂糯米包油条", "shop_lng": "114.28433", "shop_tag": "", "street_address": "解放大道(江汉北路口)"}
{"shop_tel": "", "open_time": "尚无营业时间", "shop_lat": "36.192143825955", "shop_name": "周记手抓龙虾城", "shop_lng": "117.1055851237", "shop_tag": "", "street_address": "傲徕峰路3号(近建设大厦)"}
{"shop_tel": "", "open_time": "10:00-20:00", "shop_lat": "35.59399133", "shop_name": "喜乐源", "shop_lng": "116.9709962", "shop_tag": "", "street_address": "圣哲路曲师大东门往北50米"}
{"shop_tel": "", "open_time": "08:00-21:00", "shop_lat": "36.187786", "shop_name": "川城百味", "shop_lng": "117.12529", "shop_tag": "", "street_address": "财源大街90号中百美食林"}
{"shop_tel": "无", "open_time": "尚无营业时间", "shop_lat": "28.6769600000299", "shop_name": "福建沙县营养小吃", "shop_lng": "121.403233999873", "shop_tag": "", "street_address": "曙光路121号(近中山西路)"}
{"shop_tel": "", "open_time": "每天 09:00 - 23:00", "shop_lat": "28.75928038", "shop_name": "港式甜品", "shop_lng": "121.4994819", "shop_tag": "", "street_address": "杜桥镇环城南路410号"}
{"shop_tel": "", "open_time": "09:00-21:00", "shop_lat": "28.844307", "shop_name": "元祖(临海店)", "shop_lng": "121.13582", "shop_tag": "", "street_address": "巾山东路141-12号"}
{"shop_tel": "", "open_time": "尚无营业时间", "shop_lat": "28.8481539999947", "shop_name": "明芳快餐", "shop_lng": "121.117909999844", "shop_tag": "", "street_address": "赤城路134号"}
{"shop_tel": "", "open_time": "尚无营业时间", "shop_lat": "36.6370804579195", "shop_name": "湖南湘菜", "shop_lng": "101.748765296961", "shop_tag": "", "street_address": "虎台二巷2号附近"}
{"shop_tel": "", "open_time": "尚无营业时间", "shop_lat": "26.636593", "shop_name": "龙门渔港(喜天店)", "shop_lng": "106.776944", "shop_tag": "", "street_address": "新添大道北段24-8号(近万江大厦)"}
{"shop_tel": "无", "open_time": "尚无营业时间", "shop_lat": "26.5836609002373", "shop_name": "宾隆超市", "shop_lng": "106.695304499982", "shop_tag": "", "street_address": "黄金路92号(黄金集贸市场东侧)"}
{"shop_tel": "无", "open_time": "尚无营业时间", "shop_lat": "26.610135", "shop_name": "贵州医学院职工食堂", "shop_lng": "106.645488", "shop_tag": "", "street_address": "兴贵巷"}
{"shop_tel": "无", "open_time": "尚无营业时间", "shop_lat": "26.441427589709", "shop_name": "古吧", "shop_lng": "106.6768637741", "shop_tag": "", "street_address": "花溪大道南段2814号"}
{"shop_tel": "无", "open_time": "尚无营业时间", "shop_lat": "30.52687", "shop_name": "沙县小吃", "shop_lng": "114.36409", "shop_tag": "", "street_address": "广八路115号(近银海雅苑)"}
{"shop_tel": "", "open_time": "11:00 -22:30", "shop_lat": "30.502106", "shop_name": "Noi诺意(光谷店)", "shop_lng": "114.407601", "shop_tag": "", "street_address": "珞雄路(近光谷街)意大利风情街多莫大教堂内3楼"}
{"shop_tel": "", "open_time": "尚无营业时间", "shop_lat": "30.51748", "shop_name": "福客来西餐自助餐厅(湖滨花园酒店)", "shop_lng": "114.384213", "shop_tag": "", "street_address": "武昌珞喻路115号湖滨花园酒店1楼"}
{"shop_tel": "无", "open_time": "尚无营业时间", "shop_lat": "30.58593195", "shop_name": "老中原烧烤", "shop_lng": "114.2998532", "shop_tag": "", "street_address": "洞庭街69号(近黎黄陂路)(叁咖啡对面)"}
{"shop_tel": "", "open_time": "尚无营业时间", "shop_lat": "30.5873299999757", "shop_name": "田师傅香辣虾蟹(渣家路总店)", "shop_lng": "114.284120000066", "shop_tag": "", "street_address": "渣家路28号(江汉北路口)"}
{"shop_tel": "", "open_time": "尚无营业时间", "shop_lat": "36.195677", "shop_name": "糖汇台湾手抓饼", "shop_lng": "117.1099822", "shop_tag": "", "street_address": "文化路(近山东省泰山中学南门)"}
{"shop_tel": "无", "open_time": "尚无营业时间", "shop_lat": "35.58647", "shop_name": "特圣莱奶茶", "shop_lng": "116.96819", "shop_tag": "", "street_address": "西关大街(近曲阜师范大学东门)"}
{"shop_tel": "", "open_time": "9:00-21:00", "shop_lat": "36.1879499996448", "shop_name": "阿水大杯茶(中百店)", "shop_lng": "117.125489999715", "shop_tag": "", "street_address": "奈河西路中百大厦1楼西门厅(财源街口)"}
{"shop_tel": "无", "open_time": "尚无营业时间", "shop_lat": "28.6770440000299", "shop_name": "美客隆快餐排档", "shop_lng": "121.402939999873", "shop_tag": "", "street_address": "曙光路121号"}
{"shop_tel": "", "open_time": "尚无营业时间", "shop_lat": "28.759366", "shop_name": "老港記甜品", "shop_lng": "121.499885", "shop_tag": "", "street_address": "杜桥镇环城南路189-191号"}
{"shop_tel": "", "open_time": "每天 7: 00 -- 23: 00", "shop_lat": "28.84642", "shop_name": "临飞糕饼店", "shop_lng": "121.1327", "shop_tag": "", "street_address": "塘头路107号(近人民路)"}
{"shop_tel": "无", "open_time": "尚无营业时间", "shop_lat": "28.8485359999947", "shop_name": "世纪阳光快餐", "shop_lng": "121.118078999844", "shop_tag": "", "street_address": "赤城路134号附近"}
{"shop_tel": "无", "open_time": "尚无营业时间", "shop_lat": "36.630900336372", "shop_name": "湘西土菜馆", "shop_lng": "101.74221299913", "shop_tag": "", "street_address": "冷湖路35号"}
{"shop_tel": "", "open_time": "尚无营业时间", "shop_lat": "26.57752", "shop_name": "第一食间中式快餐", "shop_lng": "106.71537", "shop_tag": "", "street_address": "小十字中山东路(贵阳银行旁)"}
{"shop_tel": "无", "open_time": "尚无营业时间", "shop_lat": "26.582811414931", "shop_name": "楠溪江超市", "shop_lng": "106.69998318142", "shop_tag": "", "street_address": "延安西路44号"}
{"shop_tel": "", "open_time": "10：00——21:00", "shop_lat": "26.60597", "shop_name": "光头心肺", "shop_lng": "106.6453", "shop_tag": "", "street_address": "金阳新区世纪城合肥路"}
{"shop_tel": "无", "open_time": "尚无营业时间", "shop_lat": "26.441491699219", "shop_name": "江湖一0八", "shop_lng": "106.67684136285", "shop_tag": "", "street_address": "花溪大道南段2814号"}
{"shop_tel": "无", "open_time": "每天 7: 00 -- 22: 00", "shop_lat": "30.58207", "shop_name": "鑫王婆牛肉面(万松园)", "shop_lng": "114.26856", "shop_tag": "", "street_address": "万松园路(近鹏记热干面)"}
{"shop_tel": "", "open_time": "10:30-14:00,17:00-21:30", "shop_lat": "30.6050436", "shop_name": "映月梧桐新台湾料理", "shop_lng": "114.2624504", "shop_tag": "", "street_address": "青年路378号万景国际1号楼商2楼(近青年路范湖公交站)"}
{"shop_tel": "", "open_time": "尚无营业时间", "shop_lat": "30.5168724060059", "shop_name": "艳阳天酒家(珞瑜路店)", "shop_lng": "114.383041381836", "shop_tag": "", "street_address": "珞喻路517号(金鑫国际家具正对面)"}
{"shop_tel": "", "open_time": "17:00-次日02:00", "shop_lat": "30.58405392", "shop_name": "酒窝Dimple烧烤", "shop_lng": "114.2999282", "shop_tag": "", "street_address": "合作路14号界立方外街"}
{"shop_tel": "", "open_time": "11:00-14:00,17:00-20:00", "shop_lat": "30.576695", "shop_name": "红九天", "shop_lng": "114.267927", "shop_tag": "", "street_address": "京汉大道395号(轻轨利济北路站向崇仁路方向过马路即到)"}
{"shop_tel": "无", "open_time": "尚无营业时间", "shop_lat": "36.195801", "shop_name": "农夫农场烤鸡(文化路店)", "shop_lng": "117.1107371", "shop_tag": "", "street_address": "文化路东段(农大后西门)"}
{"shop_tel": "无", "open_time": "尚无营业时间", "shop_lat": "35.396256781684", "shop_name": "沁雅餐厅", "shop_lng": "116.5942594401", "shop_tag": "", "street_address": "静轩路56号(近曲师大东门)"}
{"shop_tel": "", "open_time": "尚无营业时间", "shop_lat": "36.19182614", "shop_name": "山泉茶楼", "shop_lng": "117.1398866", "shop_tag": "", "street_address": "迎暄大街26号(金海大酒店西侧)"}
{"shop_tel": "", "open_time": "尚无营业时间", "shop_lat": "28.673077999994", "shop_name": "佳佳快餐", "shop_lng": "121.429777999788", "shop_tag": "", "street_address": "轮渡路335号附近"}
{"shop_tel": "", "open_time": "尚无营业时间", "shop_lat": "28.759841", "shop_name": "香脆鸭(杜桥店)", "shop_lng": "121.500144", "shop_tag": "", "street_address": "杜桥镇杜川路336号(益加益药店旁)"}
{"shop_tel": "", "open_time": "尚无营业时间", "shop_lat": "28.842675", "shop_name": "果麦(望洋路店)", "shop_lng": "121.130228", "shop_tag": "", "street_address": "鹿城路223号耀达商场南门果麦夜市店"}
{"shop_tel": "无", "open_time": "尚无营业时间", "shop_lat": "36.6308932", "shop_name": "远东国宴", "shop_lng": "101.7409757", "shop_tag": "", "street_address": "昆仑路"}
{"shop_tel": "无", "open_time": "尚无营业时间", "shop_lat": "26.5724600001007", "shop_name": "销魂炒饭", "shop_lng": "106.717209999893", "shop_tag": "", "street_address": "富水南路196号全林广场步行街菜场侧"}
{"shop_tel": "", "open_time": "尚无营业时间", "shop_lat": "26.584118923611", "shop_name": "小菊便利店", "shop_lng": "106.70035834418", "shop_tag": "", "street_address": "延安北巷16号"}
{"shop_tel": "", "open_time": "尚无营业时间", "shop_lat": "26.60769015842", "shop_name": "锦绣鼎园食府", "shop_lng": "106.62697455512", "shop_tag": "", "street_address": "金阳新区世纪城兰州路龙棋苑锦绣公园(近山顶上)"}
{"shop_tel": "", "open_time": "尚无营业时间", "shop_lat": "30.54739852", "shop_name": "都市田园", "shop_lng": "114.2748198", "shop_tag": "", "street_address": "阳新路(凤凰华庭对面)"}
{"shop_tel": "", "open_time": "尚无营业时间", "shop_lat": "30.56870717", "shop_name": "太兴餐厅", "shop_lng": "114.2672639", "shop_tag": "", "street_address": "中山大道238号凯德广场4楼(近武胜路)"}
{"shop_tel": "", "open_time": "尚无营业时间", "shop_lat": "30.6081639999772", "shop_name": "禾美鲜鱼村", "shop_lng": "114.424017000088", "shop_tag": "", "street_address": "珞瑜东路鼓风社区"}
{"shop_tel": "", "open_time": "17：30至凌晨5：00", "shop_lat": "30.59092", "shop_name": "腰花王烧烤店", "shop_lng": "114.29922", "shop_tag": "", "street_address": "车站路47号(近光大银行)"}
{"shop_tel": "", "open_time": "10:00am-9:30pm", "shop_lat": "30.52548", "shop_name": "芒果酸奶屋", "shop_lng": "114.35649", "shop_tag": "", "street_address": "珞瑜路10号群光二期百脑汇5楼(由未来城搬至百脑汇，10.18开始营业)"}
{"shop_tel": "无", "open_time": "尚无营业时间", "shop_lat": "36.1566020004062", "shop_name": "曹家饭店", "shop_lng": "117.103475999545", "shop_tag": "", "street_address": "迎胜路"}
{"shop_tel": "", "open_time": "尚无营业时间", "shop_lat": "35.364991", "shop_name": "老河堤菜社", "shop_lng": "116.607776", "shop_tag": "", "street_address": "火炬路南往东100米(近清华驾校)"}
{"shop_tel": "", "open_time": "尚无营业时间", "shop_lat": "36.18979688", "shop_name": "绿叶茶楼", "shop_lng": "117.1088702", "shop_tag": "", "street_address": "东岳大街99-2号铁路幼儿园院内(近铁道大厦)"}
{"shop_tel": "", "open_time": "尚无营业时间", "shop_lat": "28.672164999994", "shop_name": "海天涮烤火锅城", "shop_lng": "121.429329999788", "shop_tag": "", "street_address": "轮渡路108号-7号(氷果市场旁边)"}
{"shop_tel": "", "open_time": "16:30-22:30", "shop_lat": "28.76059", "shop_name": "太白烤鱼", "shop_lng": "121.49992", "shop_tag": "", "street_address": "杜川路231号"}
{"shop_tel": "", "open_time": "尚无营业时间", "shop_lat": "28.842656", "shop_name": "汉釜宫", "shop_lng": "121.129981", "shop_tag": "", "street_address": "望洋路80号"}
{"shop_tel": "无", "open_time": "尚无营业时间", "shop_lat": "28.8424890000394", "shop_name": "一段时光", "shop_lng": "121.130128000149", "shop_tag": "", "street_address": "望洋路92号"}
{"shop_tel": "无", "open_time": "尚无营业时间", "shop_lat": "36.634488", "shop_name": "高原红酒店", "shop_lng": "101.7615", "shop_tag": "", "street_address": "青海湖景区大门对面"}
{"shop_tel": "", "open_time": "尚无营业时间", "shop_lat": "26.584667", "shop_name": "黄记煌三汁焖锅(新华都店)", "shop_lng": "106.714738", "shop_tag": "", "street_address": "富水北路68号新华都购物广场2楼(近德克士)"}
{"shop_tel": "", "open_time": "尚无营业时间", "shop_lat": "26.584", "shop_name": "兵哥脆皮猪脚", "shop_lng": "106.7", "shop_tag": "", "street_address": "延安西路延安巷62号(威清路比兰德正对面)"}
{"shop_tel": "", "open_time": "尚无营业时间", "shop_lat": "26.600594618056", "shop_name": "印象苗岭酸汤鱼", "shop_lng": "106.62298719618", "shop_tag": "", "street_address": "金阳新区金源购物中心C栋4楼"}
{"shop_tel": "无", "open_time": "尚无营业时间", "shop_lat": "30.58745611", "shop_name": "黄石路书店", "shop_lng": "114.2907497", "shop_tag": "", "street_address": "黄石路"}
{"shop_tel": "", "open_time": "11:15-21:00", "shop_lat": "30.569120000016", "shop_name": "我家小馆(武胜路凯德广场店)", "shop_lng": "114.267560000049", "shop_tag": "", "street_address": "中山大道238号凯德广场7楼(近武胜路)"}
{"shop_tel": "无", "open_time": "每天", "shop_lat": "30.52595211", "shop_name": "云南味道", "shop_lng": "114.3546981", "shop_tag": "", "street_address": "街道口珞瑜路4号乐天城B1楼(近群光广场)"}
{"shop_tel": "无", "open_time": "尚无营业时间", "shop_lat": "30.57917741", "shop_name": "五娭毑臭豆腐(江汉路店)", "shop_lng": "114.289546", "shop_tag": "", "street_address": "前进五路(水塔消防队对面)"}
{"shop_tel": "", "open_time": "11:00-21:00", "shop_lat": "30.605719999967", "shop_name": "爱么泡芙(二中店)", "shop_lng": "114.308419999994", "shop_tag": "", "street_address": "中山大道1556号(武汉二中对面)"}
{"shop_tel": "", "open_time": "10:00-21:30", "shop_lat": "36.1564421185056", "shop_name": "俊豪石锅", "shop_lng": "117.104374915466", "shop_tag": "", "street_address": "泰玻大街中段（灵芝花园门口往东100米路南）"}
{"shop_tel": "无", "open_time": "尚无营业时间", "shop_lat": "35.3723019997035", "shop_name": "老干部食堂", "shop_lng": "116.610291000227", "shop_tag": "", "street_address": "车站南路39号"}
{"shop_tel": "", "open_time": "9:00—22:00", "shop_lat": "36.1895885", "shop_name": "披萨利亚", "shop_lng": "117.1095838", "shop_tag": "", "street_address": "东岳大街大润发对过(大润发对面)"}
{"shop_tel": "", "open_time": "尚无营业时间", "shop_lat": "28.675906", "shop_name": "胡记蟹煲庄", "shop_lng": "121.427224", "shop_tag": "", "street_address": "和平路108--109号(中山西路浓浓魅力后面)"}
{"shop_tel": "", "open_time": "17点    2点", "shop_lat": "28.12807", "shop_name": "玉环原生态石板烧烤", "shop_lng": "121.22918", "shop_tag": "", "street_address": "城中路65号"}
{"shop_tel": "", "open_time": "10:30-21:30", "shop_lat": "28.40041", "shop_name": "花惠浦韩国料理", "shop_lng": "121.38096", "shop_tag": "", "street_address": "万昌中路1269号(近品珍楼)"}
{"shop_tel": "", "open_time": "每天 08:00 - 24:00", "shop_lat": "28.84425549", "shop_name": "香芋仙", "shop_lng": "121.126016", "shop_tag": "", "street_address": "崇和商城南面16-17门面(近肯德基)"}
{"shop_tel": "", "open_time": "09:30-次日01:00", "shop_lat": "36.62075711", "shop_name": "唐莲文化休闲会所", "shop_lng": "101.7830602", "shop_tag": "", "street_address": "大十字兴旺大厦1-3F(大十字西北角)"}
{"shop_tel": "", "open_time": "11:00-22:00", "shop_lat": "26.580346", "shop_name": "人剧思好卤味", "shop_lng": "106.712101", "shop_tag": "", "street_address": "中华中路人民剧院内"}
{"shop_tel": "", "open_time": "10:00-22:00", "shop_lat": "26.6392083", "shop_name": "牛浪福秘制牛肉(金阳店)", "shop_lng": "106.6517828", "shop_tag": "", "street_address": "长岭北路美的林城时代美桐苑1-19号(会展城)"}
{"shop_tel": "", "open_time": "尚无营业时间", "shop_lat": "26.59936391", "shop_name": "滇蘑菇", "shop_lng": "106.6252656", "shop_tag": "", "street_address": "金阳南路金阳新区世纪城金源购物中心B栋4楼408室(近沃美影城、近世纪金源大饭店)"}
{"shop_tel": "", "open_time": "09:30——22:00", "shop_lat": "26.5985161", "shop_name": "成都三只耳冷锅鱼(金阳世纪城店)", "shop_lng": "106.6260246", "shop_tag": "", "street_address": "世纪金源购物中心C座4楼(世纪金源购物中心永辉超市楼上)"}
{"shop_tel": "无", "open_time": "尚无营业时间", "shop_lat": "30.58802", "shop_name": "菲林音乐酒吧", "shop_lng": "114.29014", "shop_tag": "", "street_address": "京汉大道942号(近融科天城一期)"}
{"shop_tel": "", "open_time": "尚无营业时间", "shop_lat": "30.581760000016", "shop_name": "德润福严氏烧麦", "shop_lng": "114.277529999981", "shop_tag": "", "street_address": "友谊路双洞正街48号(近解放大道，中百对面)"}
{"shop_tel": "无", "open_time": "AM10:00--PM22:00", "shop_lat": "30.525952", "shop_name": "甜缘蛋糕", "shop_lng": "114.354698", "shop_tag": "", "street_address": "珞喻路6号乐天城购物中心3楼(近珞狮路)"}
{"shop_tel": "无", "open_time": "尚无营业时间", "shop_lat": "30.58387", "shop_name": "张师傅香辣虾", "shop_lng": "114.28447", "shop_tag": "", "street_address": "循礼门"}
{"shop_tel": "", "open_time": "09：30——21：00", "shop_lat": "30.547234", "shop_name": "Brownie Cake Shop(粮道街店)", "shop_lng": "114.310531", "shop_tag": "", "street_address": "粮道街226-2号(近司门口武汉中学高中部)"}
{"shop_tel": "", "open_time": "9:00~23:00", "shop_lat": "36.194229", "shop_name": "九宫格重庆老火锅", "shop_lng": "117.087479", "shop_tag": "", "street_address": "市政广场汉阳自助烤肉旁边"}
{"shop_tel": "无", "open_time": "尚无营业时间", "shop_lat": "35.3872210002277", "shop_name": "光辉快餐店", "shop_lng": "116.603515999703", "shop_tag": "", "street_address": "车站南路26号"}
{"shop_tel": "", "open_time": "尚无营业时间", "shop_lat": "36.19182", "shop_name": "柠檬树西餐厅", "shop_lng": "117.07236", "shop_tag": "", "street_address": "长城路月季花园"}
{"shop_tel": "", "open_time": "尚无营业时间", "shop_lat": "28.67537258", "shop_name": "欧胜客", "shop_lng": "121.427449", "shop_tag": "", "street_address": "中山西路150-1号肯德基对面"}
{"shop_tel": "", "open_time": "尚无营业时间", "shop_lat": "29.13217", "shop_name": "金诺郎韩式养生烤肉", "shop_lng": "121.03664", "shop_tag": "", "street_address": "金盘中路197号"}
{"shop_tel": "", "open_time": "尚无营业时间", "shop_lat": "28.67878629", "shop_name": "韩鑫宫韩国料理", "shop_lng": "121.4297096", "shop_tag": "", "street_address": "轮渡路276号"}
{"shop_tel": "", "open_time": "10:30-21:30", "shop_lat": "28.8510131835937", "shop_name": "金巴斯牛排馆(仙居店)", "shop_lng": "120.742897033691", "shop_tag": "", "street_address": "永安街65号"}
{"shop_tel": "", "open_time": "尚无营业时间", "shop_lat": "36.618082", "shop_name": "柴达木黑红枸杞", "shop_lng": "101.788156", "shop_tag": "", "street_address": "仓门街6号-10号"}
{"shop_tel": "", "open_time": "尚无营业时间", "shop_lat": "26.58180829", "shop_name": "蔡记炖鸡饭", "shop_lng": "106.7147503", "shop_tag": "", "street_address": "省府北路1号(近富水北路)"}
{"shop_tel": "", "open_time": "尚无营业时间", "shop_lat": "26.6407469999216", "shop_name": "扒房", "shop_lng": "106.642724000042", "shop_tag": "", "street_address": "中天路7号(近观山公园)"}
{"shop_tel": "无", "open_time": "尚无营业时间", "shop_lat": "26.5994620924603", "shop_name": "金香园", "shop_lng": "106.620569151984", "shop_tag": "", "street_address": "野鸭乡金西分流中心向南100米"}
{"shop_tel": "", "open_time": "尚无营业时间", "shop_lat": "26.6533740820688", "shop_name": "重庆传统火锅", "shop_lng": "106.627227015933", "shop_tag": "", "street_address": "金朱东路80号"}
{"shop_tel": "无", "open_time": "尚无营业时间", "shop_lat": "30.59542682", "shop_name": "老地方酒吧", "shop_lng": "114.288941", "shop_tag": "", "street_address": "西马路85号百帝苑小区1楼商铺(近苗栗路)"}
{"shop_tel": "无", "open_time": "尚无营业时间", "shop_lat": "30.57156884", "shop_name": "李记热干面(中山大道店)", "shop_lng": "114.2760604", "shop_tag": "", "street_address": "中山大道384号附2利济路车站旁(近多福路路口)"}
{"shop_tel": "", "open_time": "7:30-21:00", "shop_lat": "30.525869", "shop_name": "仟吉西饼(群光广场店)", "shop_lng": "114.35534", "shop_tag": "", "street_address": "珞喻路6号群光广场B1楼美食街(近珞狮路)"}
{"shop_tel": "", "open_time": "11:00-23:00", "shop_lat": "30.597427842882", "shop_name": "天佑哈儿火锅", "shop_lng": "114.21267849392", "shop_tag": "", "street_address": "古田四路江城1号创意产业园15栋原轻机厂(湖北省警官学院斜对面)"}
{"shop_tel": "", "open_time": "8:00-23:00", "shop_lat": "30.52996577", "shop_name": "汉堡王(亚贸店)", "shop_lng": "114.3412141", "shop_tag": "", "street_address": "武珞路586号137栋2楼宝通禅寺地铁站B出口风亭旁(近亚贸广场)"}
{"shop_tel": "", "open_time": "9：30-23：30", "shop_lat": "36.192112", "shop_name": "火柴盒年代主题木炭火锅餐厅", "shop_lng": "117.113534", "shop_tag": "", "street_address": "岱宗大街中心医院十字路口东50米路南院内(大众宾馆)"}
{"shop_tel": "无", "open_time": "尚无营业时间", "shop_lat": "35.3984629996009", "shop_name": "车站快餐大排档", "shop_lng": "116.598726999788", "shop_tag": "", "street_address": "建设南路"}
{"shop_tel": "", "open_time": "11:00-20:30", "shop_lat": "36.1833765", "shop_name": "东方豪客(泰山店)", "shop_lng": "117.1026798", "shop_tag": "", "street_address": "泰山大街银座奥特莱斯2楼东北角"}
{"shop_tel": "无", "open_time": "尚无营业时间", "shop_lat": "28.36819761", "shop_name": "必胜客(温岭店)", "shop_lng": "121.3673395", "shop_tag": "", "street_address": "万寿路"}
{"shop_tel": "无", "open_time": "尚无营业时间", "shop_lat": "28.6860299999794", "shop_name": "扒鸡烤鸭", "shop_lng": "121.29037899985", "shop_tag": "", "street_address": "坦头镇菜场旁"}
{"shop_tel": "", "open_time": "每天 16:00 - 04:05", "shop_lat": "28.67924957", "shop_name": "传奇龙虾", "shop_lng": "121.4315355", "shop_tag": "", "street_address": "工人东路345号"}
{"shop_tel": "", "open_time": "尚无营业时间", "shop_lat": "28.85213", "shop_name": "整骨专家", "shop_lng": "120.73771", "shop_tag": "", "street_address": "省耕路17号(三江超市报亭对面)"}
{"shop_tel": "", "open_time": "10:30-20:00", "shop_lat": "36.61795", "shop_name": "恒顺砂锅刀削面", "shop_lng": "101.78787", "shop_tag": "", "street_address": "莫家街综合农贸市场小吃区"}
{"shop_tel": "无", "open_time": "尚无营业时间", "shop_lat": "26.57185139974", "shop_name": "佳佳砂锅饭", "shop_lng": "106.71180013021", "shop_tag": "", "street_address": "博爱路"}
{"shop_tel": "无", "open_time": "尚无营业时间", "shop_lat": "26.592874", "shop_name": "手握披萨", "shop_lng": "106.708898", "shop_tag": "", "street_address": "北京路66号龙润广场B1楼"}
{"shop_tel": "", "open_time": "尚无营业时间", "shop_lat": "26.59931547", "shop_name": "味食尚银莲老汤砂锅店", "shop_lng": "106.6252626", "shop_tag": "", "street_address": "金阳南路金阳世纪城金源购物中心B栋4楼"}
{"shop_tel": "", "open_time": "尚无营业时间", "shop_lat": "26.589888", "shop_name": "闛会私人音乐KTV", "shop_lng": "106.711867", "shop_tag": "", "street_address": "普陀路凯旋门A座7楼"}
{"shop_tel": "", "open_time": "19：00--3:00", "shop_lat": "30.59355944", "shop_name": "海上花酒吧", "shop_lng": "114.2783102", "shop_tag": "", "street_address": "云林街58号(台北一路口)"}
{"shop_tel": "无", "open_time": "尚无营业时间", "shop_lat": "30.577224", "shop_name": "婆婆卤味(万达店)", "shop_lng": "114.291165", "shop_tag": "", "street_address": "民生路176号万达广场C座1楼(近江汉路)"}
{"shop_tel": "无", "open_time": "靠近中午出摊，晚上很晚才打烊的", "shop_lat": "30.478157280816", "shop_name": "实惠梅花糕", "shop_lng": "114.38850124783", "shop_tag": "", "street_address": "南湖南路1号中南财经政法大学南湖校区西苑后街(近南湖大道)"}
{"shop_tel": "", "open_time": "尚无营业时间", "shop_lat": "30.61197", "shop_name": "大兵烧烤", "shop_lng": "114.27747", "shop_tag": "", "street_address": "三眼桥北路27号附4号(武商量贩港澳超市旁)"}
{"shop_tel": "", "open_time": "11:00-14:00；17:00-21:00", "shop_lat": "30.50142", "shop_name": "颐和尚景酒店", "shop_lng": "114.43954", "shop_tag": "", "street_address": "东湖新技术开发区光谷创业街66号(近华中科技大学文华学院)"}
{"shop_tel": "", "open_time": "每天 10: 00 -- 21: 00", "shop_lat": "36.15871824", "shop_name": "呱呱呷鲜瓜火锅", "shop_lng": "117.1123266", "shop_tag": "", "street_address": "龙潭路南段徐家楼社区益华购物中心四楼(近居然之家南500米)"}
{"shop_tel": "", "open_time": "尚无营业时间", "shop_lat": "35.39730093", "shop_name": "速5鲜水果连锁超市(南站店)", "shop_lng": "116.5978069", "shop_tag": "", "street_address": "汽车南站进站口"}
{"shop_tel": "", "open_time": "尚无营业时间", "shop_lat": "36.1832950643505", "shop_name": "维也纳观景餐厅", "shop_lng": "117.1024", "shop_tag": "", "street_address": "泰山大街166号维也纳酒店11楼(银座奥特莱斯)"}
{"shop_tel": "", "open_time": "9:00--22:00‎", "shop_lat": "28.37589746", "shop_name": "牛骑士欢乐餐厅", "shop_lng": "121.3733398", "shop_tag": "", "street_address": "万昌中路8号(新华书店对面)"}
{"shop_tel": "", "open_time": "尚无营业时间", "shop_lat": "29.1374184", "shop_name": "绝味烤猪蹄", "shop_lng": "121.0377397", "shop_tag": "", "street_address": "工人东路118-6号(天台小吃对面)"}
{"shop_tel": "", "open_time": "尚无营业时间", "shop_lat": "28.673231999994", "shop_name": "三胖子川菜", "shop_lng": "121.427315999788", "shop_tag": "", "street_address": "中山支路83号"}
{"shop_tel": "无", "open_time": "尚无营业时间", "shop_lat": "36.615108", "shop_name": "花园南街包子铺", "shop_lng": "101.787147", "shop_tag": "", "street_address": "花园南街66号(近华联)"}
{"shop_tel": "无", "open_time": "尚无营业时间", "shop_lat": "26.5855189998484", "shop_name": "康家脆哨面(文昌北路店)", "shop_lng": "106.718225000108", "shop_tag": "", "street_address": "文昌北路160号(近延安东路)"}
{"shop_tel": "", "open_time": "尚无营业时间", "shop_lat": "26.593673", "shop_name": "杨家粉面家常菜馆", "shop_lng": "106.708343", "shop_tag": "", "street_address": "北京路114号"}
{"shop_tel": "", "open_time": "尚无营业时间", "shop_lat": "26.59935587", "shop_name": "水果捞(金阳世纪城店)", "shop_lng": "106.6252595", "shop_tag": "", "street_address": "金阳南路6号世纪金源购物中心B栋1楼"}
{"shop_tel": "", "open_time": "尚无营业时间", "shop_lat": "26.62390946", "shop_name": "银杏树酒家", "shop_lng": "106.6163597", "shop_tag": "", "street_address": "金阳区步行街"}
{"shop_tel": "", "open_time": "9:00-22:00", "shop_lat": "30.62681922", "shop_name": "主题加菲", "shop_lng": "114.374202", "shop_tag": "", "street_address": "和平大道建设二路32附25号(新奥·学府佳邻旁)"}
{"shop_tel": "", "open_time": "周一至周五：午市11:30-14:30、晚市17:00-21:00 周六、周日：午市11:30-16:30、晚市16:30-21:00", "shop_lat": "30.5831800000475", "shop_name": "东北人烤肉时尚自助餐厅", "shop_lng": "114.288309999981", "shop_tag": "", "street_address": "江汉路步行街181号俊华大厦4楼(近循礼门轻轨站)"}
{"shop_tel": "", "open_time": "12：00—21：00", "shop_lat": "30.59265405", "shop_name": "樱花糕坊(海寿街店)", "shop_lng": "114.3000398", "shop_tag": "", "street_address": "海寿街25号(近友益街)"}
{"shop_tel": "无", "open_time": "尚无营业时间", "shop_lat": "30.6012700000025", "shop_name": "丙祥烧麦", "shop_lng": "114.291799999994", "shop_tag": "", "street_address": "球场街球场热干面馆旁(近花鸟市场)"}
{"shop_tel": "", "open_time": "11:00-23:30", "shop_lat": "30.5075590000496", "shop_name": "捞旺猪肚鸡(光谷店)", "shop_lng": "114.396791000009", "shop_tag": "", "street_address": "珞瑜路887号(709研究所对面)"}
{"shop_tel": "", "open_time": "尚无营业时间", "shop_lat": "36.158644", "shop_name": "泰山八赶八筵席", "shop_lng": "117.111872", "shop_tag": "", "street_address": "龙潭路益华购物中心4楼"}
{"shop_tel": "", "open_time": "尚无营业时间", "shop_lat": "35.388713", "shop_name": "壮壮鲜奶吧(国光店)", "shop_lng": "116.60168", "shop_tag": "", "street_address": "火车站南路国光小区爱客多超市1楼(幼儿园和锦绣超市中间)"}
{"shop_tel": "无", "open_time": "尚无营业时间", "shop_lat": "36.1817740002539", "shop_name": "如意炒鸡店", "shop_lng": "117.108520000257", "shop_tag": "", "street_address": "三里庄路"}
{"shop_tel": "", "open_time": "尚无营业时间", "shop_lat": "28.36392567", "shop_name": "秘密花园", "shop_lng": "121.3683595", "shop_tag": "", "street_address": "太平南路29号(大元桥诊所对面)"}
{"shop_tel": "", "open_time": "尚无营业时间", "shop_lat": "29.1376150000788", "shop_name": "红三环龙虾排档", "shop_lng": "121.037406999894", "shop_tag": "", "street_address": "工人东路118号"}
{"shop_tel": "", "open_time": "尚无营业时间", "shop_lat": "28.674703233507", "shop_name": "重庆鸡公煲", "shop_lng": "121.42813883464", "shop_tag": "", "street_address": "中山支路56号(林家铺子斜对面)"}
{"shop_tel": "", "open_time": "10:00 - 22:00", "shop_lat": "36.61677", "shop_name": "极品大盘鸡", "shop_lng": "101.79322", "shop_tag": "", "street_address": "花园南街(华联超市东侧)"}
{"shop_tel": "", "open_time": "尚无营业时间", "shop_lat": "26.59841315", "shop_name": "老凯俚酸汤鱼(盐务街店)", "shop_lng": "106.7116297", "shop_tag": "", "street_address": "盐务街23号"}
{"shop_tel": "无", "open_time": "尚无营业时间", "shop_lat": "26.592238", "shop_name": "王记肠旺面", "shop_lng": "106.710403", "shop_tag": "", "street_address": "环北巷"}
{"shop_tel": "", "open_time": "尚无营业时间", "shop_lat": "26.633673", "shop_name": "惠诚滋知(金阳店)", "shop_lng": "106.619585", "shop_tag": "", "street_address": "金阳新区碧海花园馨怡园"}
{"shop_tel": "", "open_time": "尚无营业时间", "shop_lat": "26.6248757591126", "shop_name": "刘记羊肉粉馆", "shop_lng": "106.616696761044", "shop_tag": "", "street_address": "金阳商业步行街内"}
{"shop_tel": "无", "open_time": "9:00-21:00", "shop_lat": "30.61639648", "shop_name": "上海梧桐友联生煎(奥山世纪广场店)", "shop_lng": "114.3609106", "shop_tag": "", "street_address": "和平大道809号奥山世纪广场B1楼"}
{"shop_tel": "", "open_time": "尚无营业时间", "shop_lat": "30.579706759983", "shop_name": "傣妹火锅(新江汉城店)", "shop_lng": "114.29338623047", "shop_tag": "", "street_address": "江汉路步行街新江汉城4楼"}
{"shop_tel": "", "open_time": "16:30-2:00", "shop_lat": "30.5927184", "shop_name": "靓靓蒸虾(雪松路总店)", "shop_lng": "114.2682957", "shop_tag": "", "street_address": "万松园雪松路69号(劲松巷路口)"}
{"shop_tel": "", "open_time": "尚无营业时间", "shop_lat": "30.58207451", "shop_name": "一家香花溪牛肉粉店(万松园店)", "shop_lng": "114.2689597", "shop_tag": "", "street_address": "万松园路口(近苏宁电器)"}
{"shop_tel": "", "open_time": "10：00-21：00", "shop_lat": "30.47746978", "shop_name": "老村长私募菜(光谷天地店)", "shop_lng": "114.4109184", "shop_tag": "", "street_address": "关山大道光谷天地F3区29号(近南湖大道)"}
{"shop_tel": "", "open_time": "尚无营业时间", "shop_lat": "36.199018", "shop_name": "王婆炒鱼(岱宗大街店)", "shop_lng": "117.158161", "shop_tag": "", "street_address": "岱宗大街东首路北院内(云海美食城园内)"}
{"shop_tel": "无", "open_time": "尚无营业时间", "shop_lat": "35.3887040002277", "shop_name": "魏氏大排档", "shop_lng": "116.603263999703", "shop_tag": "", "street_address": "车站南路26号"}
{"shop_tel": "无", "open_time": "尚无营业时间", "shop_lat": "36.1730370003067", "shop_name": "鸿瑞大酒店", "shop_lng": "117.184857999765", "shop_tag": "", "street_address": "S31泰新高速出口"}
{"shop_tel": "", "open_time": "10:00-20:30", "shop_lat": "28.6583900000387", "shop_name": "静心素餐厅", "shop_lng": "121.441539999551", "shop_tag": "", "street_address": "商业街开元路68号(枫南小区南大门)"}
{"shop_tel": "", "open_time": "尚无营业时间", "shop_lat": "29.13412541", "shop_name": "海馨舫", "shop_lng": "121.0429298", "shop_tag": "", "street_address": "丰泽路24号"}
{"shop_tel": "", "open_time": "尚无营业时间", "shop_lat": "28.634581", "shop_name": "7890果木牛排", "shop_lng": "121.258868", "shop_tag": "", "street_address": "引泉路202-2号(自力电影院1楼)"}
{"shop_tel": "", "open_time": "每天 9:00-19:00", "shop_lat": "34.35397", "shop_name": "清真老三样", "shop_lng": "108.95567", "shop_tag": "", "street_address": "东关大街五环后街"}
{"shop_tel": "", "open_time": "早上九点一直营业到晚上十一点到十二点，东西卖完就关门了", "shop_lat": "26.58038819", "shop_name": "杨姨妈丝娃娃(飞山街店)", "shop_lng": "106.7061403", "shop_tag": "", "street_address": "飞山街214-2号"}
{"shop_tel": "无", "open_time": "尚无营业时间", "shop_lat": "26.592604", "shop_name": "雷家肠旺面、粉", "shop_lng": "106.712467", "shop_tag": "", "street_address": "沙河巷1号(近贵医街)"}
{"shop_tel": "", "open_time": "全天24小时", "shop_lat": "26.63376999", "shop_name": "诚智大酒店", "shop_lng": "106.6201212", "shop_tag": "", "street_address": "观山西路碧海花园金蝶苑内(近八匹马,聚鑫皮革商城,红街)"}
{"shop_tel": "无", "open_time": "尚无营业时间", "shop_lat": "26.6179419298535", "shop_name": "老四川饭店", "shop_lng": "106.619342031022", "shop_tag": "", "street_address": "金阳客车站旁"}
{"shop_tel": "", "open_time": "尚无营业时间", "shop_lat": "30.59024363", "shop_name": "克丽缇娜(鑫鑫恒美丽人店)", "shop_lng": "114.3476402", "shop_tag": "", "street_address": "洪山区徐东路时尚欧洲花园7号楼1楼门面"}
{"shop_tel": "", "open_time": "尚无营业时间", "shop_lat": "30.614579264323", "shop_name": "卡乐星量贩式KTV", "shop_lng": "114.30030246311", "shop_tag": "", "street_address": "永清小路20号武商量贩4楼(工商银行旁)"}
{"shop_tel": "", "open_time": "11：00-21:00", "shop_lat": "30.592927", "shop_name": "海陆空(万松园店)", "shop_lng": "114.26713", "shop_tag": "", "street_address": "万松园小区47栋198号"}
{"shop_tel": "无", "open_time": "17:00-2:00", "shop_lat": "30.56822", "shop_name": "桂萍特色牛肉牛杂", "shop_lng": "114.257299", "shop_tag": "", "street_address": "长堤街大排档(唐家巷义烈巷间)"}
{"shop_tel": "", "open_time": "11:00-21:00", "shop_lat": "30.501709", "shop_name": "云中锦(光谷店)", "shop_lng": "114.407783", "shop_tag": "", "street_address": "光谷意大利风情街5号楼4层(光谷步行街)"}
{"shop_tel": "无", "open_time": "尚无营业时间", "shop_lat": "35.3904370002277", "shop_name": "正宗单县羊汤馆", "shop_lng": "116.603539999703", "shop_tag": "", "street_address": "车站南路26号"}
{"shop_tel": "", "open_time": "尚无营业时间", "shop_lat": "36.1717660003067", "shop_name": "明春饭店", "shop_lng": "117.190050999765", "shop_tag": "", "street_address": "顺河街"}
{"shop_tel": "无", "open_time": "尚无营业时间", "shop_lat": "28.8233879999239", "shop_name": "三台书院", "shop_lng": "121.156306000077", "shop_tag": "", "street_address": "里洋路"}
{"shop_tel": "", "open_time": "尚无营业时间", "shop_lat": "36.170585", "shop_name": "蓝海水景园", "shop_lng": "116.756923", "shop_tag": "", "street_address": "上海花园西100米路南"}
{"shop_tel": "无", "open_time": "每天 09:00 - 22:00", "shop_lat": "28.6563560000072", "shop_name": "安妮宝贝冰淇淋", "shop_lng": "121.420756999941", "shop_tag": "", "street_address": "天一街实验小学门口"}
{"shop_tel": "", "open_time": "每天 09:30 - 23:30", "shop_lat": "28.65122917", "shop_name": "爱莱客", "shop_lng": "121.4159797", "shop_tag": "", "street_address": "鑫泰街152号"}
{"shop_tel": "", "open_time": "尚无营业时间", "shop_lat": "28.64066399", "shop_name": "万香姜汁", "shop_lng": "121.2670298", "shop_tag": "", "street_address": "天长南路169号"}
{"shop_tel": "", "open_time": "10-22;00", "shop_lat": "36.618534", "shop_name": "食来会所", "shop_lng": "101.793042", "shop_tag": "", "street_address": "夏都大道221号都市绿洲小区12号楼2单元1楼(夏都大道和花园南街丁字路口向东200米路南)"}
{"shop_tel": "", "open_time": "11:00到22:00", "shop_lat": "26.5800499995589", "shop_name": "醉苗乡苗菜风情酒楼", "shop_lng": "106.708469999884", "shop_tag": "", "street_address": "飞山街中段88号凯发大厦(近公园路)"}
{"shop_tel": "", "open_time": "尚无营业时间", "shop_lat": "26.59294721", "shop_name": "金悦港酒楼", "shop_lng": "106.7122503", "shop_tag": "", "street_address": "沙河街112号"}
{"shop_tel": "", "open_time": "尚无营业时间", "shop_lat": "26.56321", "shop_name": "蓉记香辣蟹爬爬虾(新华路店)", "shop_lng": "106.71928", "shop_tag": "", "street_address": "新华路(近贵阳大剧院)"}
{"shop_tel": "", "open_time": "尚无营业时间", "shop_lat": "26.6180507983231", "shop_name": "好一家家常菜馆", "shop_lng": "106.617853575053", "shop_tag": "", "street_address": "金阳客车站旁"}
{"shop_tel": "", "open_time": "10:00-20:00", "shop_lat": "30.588685", "shop_name": "鲜芋仙(销品茂店)", "shop_lng": "114.343502", "shop_tag": "", "street_address": "徐东大街18号徐东销品茂1楼"}
{"shop_tel": "无", "open_time": "尚无营业时间", "shop_lat": "30.61458", "shop_name": "伯爵至尊会所", "shop_lng": "114.30569", "shop_tag": "", "street_address": "黄浦大街27号中原国际大酒店旁"}
{"shop_tel": "", "open_time": "11:00-21:30", "shop_lat": "30.56906636", "shop_name": "鱼酷活鱼现烤(武胜凯德店)", "shop_lng": "114.2677307", "shop_tag": "", "street_address": "中山大道238号凯德广场6楼(武胜路家乐福对面)"}
{"shop_tel": "", "open_time": "10:30-21:00", "shop_lat": "30.60747484", "shop_name": "馋艺堂(武汉天地店)", "shop_lng": "114.3110001", "shop_tag": "", "street_address": "芦沟桥路62号武汉天地6-1-10单元"}
{"shop_tel": "", "open_time": "10：00---23：50时", "shop_lat": "30.50734524", "shop_name": "李二鲜鱼村(光谷店)", "shop_lng": "114.4100712", "shop_tag": "", "street_address": "珞喻路870号附4号(华中科技大学南2门对面)"}
{"shop_tel": "无", "open_time": "尚无营业时间", "shop_lat": "35.4002459996009", "shop_name": "解放路渔馆", "shop_lng": "116.600713999788", "shop_tag": "", "street_address": "王母阁路水产局北邻"}
{"shop_tel": "无", "open_time": "尚无营业时间", "shop_lat": "36.1810760002539", "shop_name": "八方客水饺美食园", "shop_lng": "117.106639000257", "shop_tag": "", "street_address": "三里路11号"}
{"shop_tel": "无", "open_time": "尚无营业时间", "shop_lat": "36.1710970003916", "shop_name": "逢香家常水饺馆", "shop_lng": "117.195283999765", "shop_tag": "", "street_address": "富民街"}
{"shop_tel": "", "open_time": "尚无营业时间", "shop_lat": "36.186388", "shop_name": "金盛源鱼馆(刘庄大街店)", "shop_lng": "116.78033", "shop_tag": "", "street_address": "刘庄大街55号"}
{"shop_tel": "", "open_time": "尚无营业时间", "shop_lat": "28.6528693427", "shop_name": "壹兜麦香(意得百货店)", "shop_lng": "121.412745211", "shop_tag": "", "street_address": "天和路88号意得百货1楼"}
{"shop_tel": "", "open_time": "10:30-20:30", "shop_lat": "28.65348", "shop_name": "欧香牛排", "shop_lng": "121.415538", "shop_tag": "", "street_address": "经济开发区巨鼎广场105号"}
{"shop_tel": "", "open_time": "8:00-23:00", "shop_lat": "28.640988", "shop_name": "粮全其美", "shop_lng": "121.263575", "shop_tag": "", "street_address": "劳动南路133号"}
{"shop_tel": "", "open_time": "", "shop_lat": "36.61996707", "shop_name": "白玉老砂锅", "shop_lng": "101.7926199", "shop_tag": "", "street_address": "白玉巷(省军区招待所对面)"}
{"shop_tel": "", "open_time": "11:00-21:00", "shop_lat": "26.58579309", "shop_name": "云之南滇味民俗酒楼(威清路店)", "shop_lng": "106.7026403", "shop_tag": "", "street_address": "威清路8号(近山林酒店)"}
{"shop_tel": "", "open_time": "尚无营业时间", "shop_lat": "26.59184839", "shop_name": "南苑酒楼", "shop_lng": "106.7093502", "shop_tag": "", "street_address": "北京路27号(六广门体育馆旁)"}
{"shop_tel": "", "open_time": "11.00-24.00", "shop_lat": "26.57525", "shop_name": "7080餐厅", "shop_lng": "106.71942", "shop_tag": "", "street_address": "文昌南路2022号亨特国际广场(近东门公交车站)"}
{"shop_tel": "", "open_time": "10：00-22：00", "shop_lat": "30.59965037", "shop_name": "马榴香榴莲王", "shop_lng": "114.3520105", "shop_tag": "", "street_address": "才茂街万科金域华府112商铺"}
{"shop_tel": "", "open_time": "每天 9: 30 -- 21: 00", "shop_lat": "30.541888", "shop_name": "小麽奶茶", "shop_lng": "114.360902", "shop_tag": "", "street_address": "和平大道奥山世纪广场B1楼(近沃尔玛出口)"}
{"shop_tel": "", "open_time": "10:00--14:00，17:00--21:00", "shop_lat": "30.59337664", "shop_name": "丸美日本料理(新华路取水楼店)", "shop_lng": "114.2726599", "shop_tag": "", "street_address": "新华路213号附3号新东方取水楼校区对面(雪松路口)"}
{"shop_tel": "", "open_time": "10:00--22:00", "shop_lat": "30.6076671", "shop_name": "Jamaica blue(武汉天地店)", "shop_lng": "114.31127", "shop_tag": "", "street_address": "芦沟桥路48号武汉天地1期1号楼(四季恋餐厅)"}
{"shop_tel": "无", "open_time": "尚无营业时间", "shop_lat": "36.1794110002217", "shop_name": "开心快餐", "shop_lng": "117.174155999698", "shop_tag": "", "street_address": "泰明路"}
{"shop_tel": "无", "open_time": "尚无营业时间", "shop_lat": "35.4006409996009", "shop_name": "好旺饺", "shop_lng": "116.600862999788", "shop_tag": "", "street_address": "解放路3号"}
{"shop_tel": "", "open_time": "尚无营业时间", "shop_lat": "36.1711970003916", "shop_name": "怡春亭饭店", "shop_lng": "117.196977999765", "shop_tag": "", "street_address": "东兴街"}
{"shop_tel": "无", "open_time": "尚无营业时间", "shop_lat": "36.18718638", "shop_name": "时尚之都浪漫酒吧", "shop_lng": "116.7824404", "shop_tag": "", "street_address": "泰西大街38号"}
{"shop_tel": "", "open_time": "尚无营业时间", "shop_lat": "28.58516943", "shop_name": "碧中海国际沐浴休闲会所", "shop_lng": "121.39195", "shop_tag": "", "street_address": "路桥国际塑料城3楼(正门)"}
{"shop_tel": "无", "open_time": "尚无营业时间", "shop_lat": "30.5065566", "shop_name": "西烂馋嘴鱼", "shop_lng": "114.4097292", "shop_tag": "", "street_address": "珞瑜路关山口站(华科南二门对面小巷)"}
{"shop_tel": "", "open_time": "尚无营业时间", "shop_lat": "28.653093", "shop_name": "七分半果木牛排", "shop_lng": "121.413152", "shop_tag": "", "street_address": "意得百货2楼"}
{"shop_tel": "无", "open_time": "尚无营业时间", "shop_lat": "28.0943680001116", "shop_name": "阿亮面馆", "shop_lng": "121.278196000245", "shop_tag": "", "street_address": "金辉路"}
{"shop_tel": "无", "open_time": "尚无营业时间", "shop_lat": "36.6200620000055", "shop_name": "五谷粥屋", "shop_lng": "101.792248999983", "shop_tag": "", "street_address": "花园北街56号"}
{"shop_tel": "无", "open_time": "通宵", "shop_lat": "26.58586", "shop_name": "习水豆腐皮火锅", "shop_lng": "106.70297", "shop_tag": "", "street_address": "威清路8号(栆山路)"}
{"shop_tel": "", "open_time": "尚无营业时间", "shop_lat": "26.589703", "shop_name": "贵州海外旅游公司(六广门)", "shop_lng": "106.711288", "shop_tag": "", "street_address": "中华北路街道六广门贵阳银行总行旁"}
{"shop_tel": "", "open_time": "10：00--22：00", "shop_lat": "26.57358", "shop_name": "浏香麻辣锅", "shop_lng": "106.71581", "shop_tag": "", "street_address": "富水南路188-4号(往小十字方向前)"}
{"shop_tel": "无", "open_time": "晚上6点半开始", "shop_lat": "30.60132", "shop_name": "胖师傅豪华炒面", "shop_lng": "114.27354", "shop_tag": "", "street_address": "北湖正街与北湖路路口(近蔡林记、首家馒头店门前)"}
{"shop_tel": "", "open_time": "11:00-22:00", "shop_lat": "30.5791885", "shop_name": "香颂地中海西餐厅La Chanson", "shop_lng": "114.26452", "shop_tag": "", "street_address": "解放大道628号K11新食艺5楼(新世界酒店旁)"}
{"shop_tel": "无", "open_time": "尚无营业时间", "shop_lat": "36.1804090002217", "shop_name": "李家庄户鸡", "shop_lng": "117.174286999698", "shop_tag": "", "street_address": "泰明路"}
{"shop_tel": "", "open_time": "尚无营业时间", "shop_lat": "36.178729", "shop_name": "盼盼黑糖话梅饮料批发(上高商贸城店)", "shop_lng": "117.174538", "shop_tag": "", "street_address": "灵山大街与天柱峰路交口北行88米路东(史福特超市)"}
{"shop_tel": "", "open_time": "09：30-12:00  15:30-18:00", "shop_lat": "36.197886", "shop_name": "康都炸肉(科山路店)", "shop_lng": "117.099782", "shop_tag": "", "street_address": "科山路6号(科山路与擂鼓石路交汇处往南100米)"}
{"shop_tel": "", "open_time": "15:00--24:00", "shop_lat": "35.91149", "shop_name": "bigboy音乐酒吧", "shop_lng": "117.76458", "shop_tag": "", "street_address": "东方时代广场北门西电梯3楼,沁园春小区北门东10米电梯"}
{"shop_tel": "无", "open_time": "尚无营业时间", "shop_lat": "28.655003999973", "shop_name": "龙马沐浴会所", "shop_lng": "121.438921000304", "shop_tag": "", "street_address": "经中路50-52号"}
{"shop_tel": "", "open_time": "尚无营业时间", "shop_lat": "28.672524", "shop_name": "水中舫休闲俱乐部", "shop_lng": "121.424597", "shop_tag": "", "street_address": "岩屿路128号"}
{"shop_tel": "", "open_time": "每天 10:00-22:00", "shop_lat": "28.65346", "shop_name": "汤味福骨煲", "shop_lng": "121.41314", "shop_tag": "", "street_address": "广场南路889号(百分百快餐)"}
{"shop_tel": "无", "open_time": "尚无营业时间", "shop_lat": "28.0934010001116", "shop_name": "志友川菜馆", "shop_lng": "121.277808000245", "shop_tag": "", "street_address": "海城路128号"}
{"shop_tel": "无", "open_time": "尚无营业时间", "shop_lat": "36.618474999925", "shop_name": "香酥鸭&香酥鸡", "shop_lng": "101.791271999822", "shop_tag": "", "street_address": "花园南街1号"}
{"shop_tel": "", "open_time": "尚无营业时间", "shop_lat": "26.56517", "shop_name": "温莎花蜜", "shop_lng": "106.716095", "shop_tag": "", "street_address": "神奇路67号东方大厦"}
{"shop_tel": "", "open_time": "尚无营业时间", "shop_lat": "26.59013984", "shop_name": "辣妈猪脚", "shop_lng": "106.7110919", "shop_tag": "", "street_address": "小十字富水中路贵阳银行旁巷内"}
{"shop_tel": "", "open_time": "尚无营业时间", "shop_lat": "26.5806199751334", "shop_name": "东云阁河鲜菜馆", "shop_lng": "106.719643042919", "shop_tag": "", "street_address": "文昌北路94号"}
{"shop_tel": "无", "open_time": "尚无营业时间", "shop_lat": "30.58663007", "shop_name": "胖子鸡排店", "shop_lng": "114.2859602", "shop_tag": "", "street_address": "解放大道(循礼门三九中原医院正对面)"}
{"shop_tel": "", "open_time": "10:00—22:00", "shop_lat": "30.6168083", "shop_name": "吾饮良品(奥山世纪广场店)", "shop_lng": "114.3604708", "shop_tag": "", "street_address": "和平大道奥山世纪广场B1楼"}
{"shop_tel": "", "open_time": "11：20 -- 21：20", "shop_lat": "30.5809497833252", "shop_name": "戈雅法餐厅(武广工贸店)", "shop_lng": "114.267822265625", "shop_tag": "", "street_address": "万松园路1号工贸大厦5楼(武汉广场对面)"}
{"shop_tel": "无", "open_time": "尚无营业时间", "shop_lat": "36.180346679688", "shop_name": "十里飘香餐饮文化有限公司", "shop_lng": "117.17501274957", "shop_tag": "", "street_address": "天烛峰路281号"}
{"shop_tel": "", "open_time": "08:00-16:00", "shop_lat": "36.180183", "shop_name": "生力源鲜奶站(九州家园店)", "shop_lng": "117.122398", "shop_tag": "", "street_address": "九州二期门口果蔬超市,九州家园附近"}
{"shop_tel": "", "open_time": "8:00-22:00", "shop_lat": "36.1941730004062", "shop_name": "华莱士(望岳店)", "shop_lng": "117.097260000427", "shop_tag": "", "street_address": "东岳大街143号(嘉华城市酒店东)"}
{"shop_tel": "", "open_time": "尚无营业时间", "shop_lat": "28.6494959999642", "shop_name": "铭源康汗蒸养生会馆", "shop_lng": "121.442439000542", "shop_tag": "", "street_address": "机场北路239-9号附近(景元西苑东北)"}
{"shop_tel": "", "open_time": "19:00至24:00", "shop_lat": "36.21128", "shop_name": "酒窝BAR", "shop_lng": "117.1477", "shop_tag": "", "street_address": "宝龙城市广场澳门街"}
{"shop_tel": "", "open_time": "尚无营业时间", "shop_lat": "28.6630560000403", "shop_name": "摩指仙境(台州椒江店)", "shop_lng": "121.43610699961", "shop_tag": "", "street_address": "解放南路18号附近"}
{"shop_tel": "", "open_time": "9：00-23：00", "shop_lat": "28.653383", "shop_name": "贪吃渔人(鑫泰街店)", "shop_lng": "121.415799", "shop_tag": "", "street_address": "鑫泰街巨鼎广场1-3号"}
{"shop_tel": "无", "open_time": "尚无营业时间", "shop_lat": "28.0926010001116", "shop_name": "四川面大王", "shop_lng": "121.278675000245", "shop_tag": "", "street_address": "兴潭西街83号"}
{"shop_tel": "无", "open_time": "尚无营业时间", "shop_lat": "36.618575999925", "shop_name": "武汉鸭脖王", "shop_lng": "101.790782999822", "shop_tag": "", "street_address": "花园南街2号"}
{"shop_tel": "", "open_time": "尚无营业时间", "shop_lat": "26.580564", "shop_name": "私享家", "shop_lng": "106.71144", "shop_tag": "", "street_address": "中华中路79号人民剧场(近中华中路)"}
{"shop_tel": "", "open_time": "尚无营业时间", "shop_lat": "26.59227404", "shop_name": "万家花江狗肉馆(普陀店)", "shop_lng": "106.7142289", "shop_tag": "", "street_address": "普陀路2号"}
{"shop_tel": "", "open_time": "下午5点半-凌晨2点半", "shop_lat": "26.5808122422713", "shop_name": "哈尼炒蟹(文昌路店)", "shop_lng": "106.719537279129", "shop_tag": "", "street_address": "文昌北路56号哈尼炒蟹（月光樱花旁）(文昌阁)"}
{"shop_tel": "无", "open_time": "尚无营业时间", "shop_lat": "26.580429416233", "shop_name": "东云阁留一手烤鱼留", "shop_lng": "106.71965901693", "shop_tag": "", "street_address": "文昌北路54号"}
{"shop_tel": "无", "open_time": "24小时营业", "shop_lat": "30.59483613", "shop_name": "刘半夜面馆", "shop_lng": "114.3014301", "shop_tag": "", "street_address": "一元路公安路口(近16中学)"}
{"shop_tel": "", "open_time": "尚无营业时间", "shop_lat": "30.590136", "shop_name": "COCO都可茶饮(湖大店)", "shop_lng": "114.344758", "shop_tag": "", "street_address": "友谊大道三角花园6号地块C1+2-1(徐东平价旁)"}
{"shop_tel": "", "open_time": "17:30-22:00", "shop_lat": "30.59075736", "shop_name": "泰国金兰花旋转餐厅", "shop_lng": "114.3042405", "shop_tag": "", "street_address": "沿江大道182号江城明珠豪生大酒店41楼"}
{"shop_tel": "", "open_time": "尚无营业时间", "shop_lat": "36.181942", "shop_name": "八点半烧烤", "shop_lng": "117.122099", "shop_tag": "", "street_address": "灵山大街100号灵应寺对面"}
{"shop_tel": "无", "open_time": "尚无营业时间", "shop_lat": "36.1943390004062", "shop_name": "金兰菜馆", "shop_lng": "117.095708000427", "shop_tag": "", "street_address": "东岳大街147-7号"}
{"shop_tel": "", "open_time": "尚无营业时间", "shop_lat": "28.649922", "shop_name": "阿宝家常菜", "shop_lng": "121.442494", "shop_tag": "", "street_address": "市府大道(机场路239号)"}
{"shop_tel": "", "open_time": "尚无营业时间", "shop_lat": "36.21128", "shop_name": "纳奇牛排", "shop_lng": "117.1477", "shop_tag": "", "street_address": "宝龙城市广场B7楼-1021室"}
{"shop_tel": "", "open_time": "10:00到21:10;特色鱼，实惠量又足", "shop_lat": "28.661986762153", "shop_name": "唐记小炒", "shop_lng": "121.43425374349", "shop_tag": "", "street_address": "韦一路"}
{"shop_tel": "", "open_time": "尚无营业时间", "shop_lat": "28.65022774", "shop_name": "小渔村美食广场", "shop_lng": "121.4202795", "shop_tag": "", "street_address": "经济开发区康平路241-253号"}
{"shop_tel": "", "open_time": "尚无营业时间", "shop_lat": "28.0928990001116", "shop_name": "中一排档", "shop_lng": "121.279004000245", "shop_tag": "", "street_address": "兴潭西街76号"}
{"shop_tel": "", "open_time": "尚无营业时间", "shop_lat": "36.6351400000761", "shop_name": "四季香卤肉店", "shop_lng": "101.759078999915", "shop_tag": "", "street_address": "商业巷1096号"}
{"shop_tel": "", "open_time": "尚无营业时间", "shop_lat": "26.58012266", "shop_name": "红牌小烙锅(公园路店)", "shop_lng": "106.7105503", "shop_tag": "", "street_address": "公园路8号附26号仁川广浴对面(近省府西路)"}
{"shop_tel": "", "open_time": "尚无营业时间", "shop_lat": "26.580595", "shop_name": "贵和汇", "shop_lng": "106.714404", "shop_tag": "", "street_address": "省府路贵山大酒店3楼"}
{"shop_tel": "无", "open_time": "尚无营业时间", "shop_lat": "26.580505", "shop_name": "天添铁板烧", "shop_lng": "106.719245", "shop_tag": "", "street_address": "文昌北路59号"}
{"shop_tel": "", "open_time": "每天 11:00 - 20:00", "shop_lat": "30.59084391276", "shop_name": "小马曲奇", "shop_lng": "114.27215115017", "shop_tag": "", "street_address": "新华路银松路109附18号(东一时区对面)"}
{"shop_tel": "无", "open_time": "尚无营业时间", "shop_lat": "30.6416201000079", "shop_name": "川渝烧烤(油闷大虾)", "shop_lng": "114.397251100021", "shop_tag": "", "street_address": "建设七路"}
{"shop_tel": "", "open_time": "尚无营业时间", "shop_lat": "30.588685", "shop_name": "热风(销品茂店)", "shop_lng": "114.343502", "shop_tag": "", "street_address": "武昌徐东大街18号武汉销品茂3楼3070"}
{"shop_tel": "", "open_time": "中餐：11:00 - 14:00 晚餐：17“00 - 21:00", "shop_lat": "30.602159999967", "shop_name": "莉莉周花园餐厅", "shop_lng": "114.308739999994", "shop_tag": "", "street_address": "胜利街256号(近陈怀民路)"}
{"shop_tel": "", "open_time": "尚无营业时间", "shop_lat": "30.5905399999626", "shop_name": "维也纳西餐厅", "shop_lng": "114.304469999909", "shop_tag": "", "street_address": "沿江大道182号江城明珠豪生大酒店大堂1楼"}
{"shop_tel": "", "open_time": "10:30--22:00", "shop_lat": "36.189570583767", "shop_name": "锡盟烤肉(银座形象店)", "shop_lng": "117.11498046875", "shop_tag": "", "street_address": "东岳大街77号银座城市广场德克士西行十米,必胜客东前方(近德克士 必胜客)"}
{"shop_tel": "无", "open_time": "尚无营业时间", "shop_lat": "36.1953930000167", "shop_name": "财兴酒楼", "shop_lng": "117.09675899997", "shop_tag": "", "street_address": "迎胜南路"}
{"shop_tel": "", "open_time": "尚无营业时间", "shop_lat": "28.672880999994", "shop_name": "老五小炒", "shop_lng": "121.428445999788", "shop_tag": "", "street_address": "轮渡路138号"}
{"shop_tel": "无", "open_time": "尚无营业时间", "shop_lat": "28.66194", "shop_name": "兴旺阁面馆(温岭店)", "shop_lng": "121.43424", "shop_tag": "", "street_address": "李家小区(近人民医院)"}
{"shop_tel": "无", "open_time": "尚无营业时间", "shop_lat": "28.6519399999642", "shop_name": "开发区商业街", "shop_lng": "121.438315000542", "shop_tag": "", "street_address": "经中路247-249号"}
{"shop_tel": "", "open_time": "尚无营业时间", "shop_lat": "28.6401860000017", "shop_name": "诚信酒家", "shop_lng": "121.259273999993", "shop_tag": "", "street_address": "环城西路5号"}
{"shop_tel": "无", "open_time": "尚无营业时间", "shop_lat": "36.6276109999956", "shop_name": "蔬菜瓜果平价超市", "shop_lng": "101.756343999915", "shop_tag": "", "street_address": "青年巷2号"}
{"shop_tel": "", "open_time": "尚无营业时间", "shop_lat": "26.587605", "shop_name": "边卡吊歪菜馆(毓秀店)", "shop_lng": "106.709586", "shop_tag": "", "street_address": "毓秀路33号(市城管局对面)"}
{"shop_tel": "", "open_time": "11:00-24:00", "shop_lat": "26.583746473524", "shop_name": "妈妈炒蟹", "shop_lng": "106.7187350803", "shop_tag": "", "street_address": "文昌北路368号(一家酒店斜对面)"}
{"shop_tel": "", "open_time": "尚无营业时间", "shop_lat": "26.579644", "shop_name": "李氏息烽阳郎鸡", "shop_lng": "106.716945", "shop_tag": "", "street_address": "蔡家街(近民生路)"}
{"shop_tel": "", "open_time": "尚无营业时间", "shop_lat": "30.6075478", "shop_name": "Brotzeit", "shop_lng": "114.3107089", "shop_tag": "", "street_address": "芦沟桥路48号武汉天地(近小城故事餐厅)"}
{"shop_tel": "", "open_time": "尚无营业时间", "shop_lat": "30.56132", "shop_name": "水云乡会所", "shop_lng": "114.37554", "shop_tag": "", "street_address": "东湖生态旅游风景区东湖听涛景区(近省博物馆)"}
{"shop_tel": "", "open_time": "11:30-21:00", "shop_lat": "30.5597465", "shop_name": "老房子青花元年", "shop_lng": "114.3352794", "shop_tag": "", "street_address": "汉街93号"}
{"shop_tel": "", "open_time": "周一至周日 12：00-22：00", "shop_lat": "30.579267", "shop_name": "m2画廊咖啡", "shop_lng": "114.295219", "shop_tag": "", "street_address": "鄱阳街江汉村3号"}
{"shop_tel": "", "open_time": "11：00-22：00", "shop_lat": "36.1468", "shop_name": "俊豪美食城", "shop_lng": "117.096", "shop_tag": "", "street_address": "泰玻大街灵芝花园东88米路南"}
{"shop_tel": "", "open_time": "尚无营业时间", "shop_lat": "36.19634108", "shop_name": "菠螺川香鱼", "shop_lng": "117.0967497", "shop_tag": "", "street_address": "迎胜路中段交通技校对面"}
{"shop_tel": "", "open_time": "尚无营业时间", "shop_lat": "28.657201", "shop_name": "永欣餐饮(永欣大饭堂东环大道店)", "shop_lng": "121.434974", "shop_tag": "", "street_address": "东环大道214-218号"}
{"shop_tel": "无", "open_time": "尚无营业时间", "shop_lat": "28.6587799999239", "shop_name": "海办群辉静保庙(疏港大道店)", "shop_lng": "121.461206", "shop_tag": "", "street_address": "疏港大道"}
{"shop_tel": "", "open_time": "尚无营业时间", "shop_lat": "28.0980030000399", "shop_name": "双龙美食楼", "shop_lng": "121.266307000093", "shop_tag": "", "street_address": "双龙路127-129号"}
{"shop_tel": "无", "open_time": "尚无营业时间", "shop_lat": "36.6360030000762", "shop_name": "国窖1573总经销", "shop_lng": "101.759537999915", "shop_tag": "", "street_address": "胜利路81-54号"}
{"shop_tel": "无", "open_time": "尚无营业时间", "shop_lat": "36.6342160000717", "shop_name": "胜通烟酒", "shop_lng": "101.761962999848", "shop_tag": "", "street_address": "东交通巷6号"}
{"shop_tel": "无", "open_time": "尚无营业时间", "shop_lat": "26.5879290350163", "shop_name": "光阴的故事音乐汇", "shop_lng": "106.710211318216", "shop_tag": "", "street_address": "毓秀路28号"}
{"shop_tel": "", "open_time": "尚无营业时间", "shop_lat": "26.60585788", "shop_name": "蓉城香鹅掌", "shop_lng": "106.6266899", "shop_tag": "", "street_address": "阳新区世纪城福州街"}
{"shop_tel": "", "open_time": "尚无营业时间", "shop_lat": "26.33315738", "shop_name": "王万妈卤猪脚", "shop_lng": "106.6904304", "shop_tag": "", "street_address": "青岩古镇余庆路10号"}
{"shop_tel": "", "open_time": "10:00-22:30", "shop_lat": "30.61404557", "shop_name": "法国西南之屋(1911店)", "shop_lng": "114.2632974", "shop_tag": "", "street_address": "新华路大武汉1911商圈D1栋1楼"}
{"shop_tel": "", "open_time": "尚无营业时间", "shop_lat": "30.56007179", "shop_name": "Show Club", "shop_lng": "114.3353721", "shop_tag": "", "street_address": "第三街区楚河汉街206号(近太极广场)"}
{"shop_tel": "", "open_time": "尚无营业时间", "shop_lat": "30.58692", "shop_name": "渝家小馆(珞珈山街店)", "shop_lng": "114.29911", "shop_tag": "", "street_address": "珞珈山街5号(近兰陵路)"}
{"shop_tel": "", "open_time": "尚无营业时间", "shop_lat": "36.14179", "shop_name": "韩式烤肉饭", "shop_lng": "117.10018", "shop_tag": "", "street_address": "医学院商业街小吃广场"}
{"shop_tel": "", "open_time": "10:30-21:00", "shop_lat": "36.19495", "shop_name": "万吉山风味菜馆", "shop_lng": "117.08879", "shop_tag": "", "street_address": "望山宾馆交运学校西临50米路南"}
{"shop_tel": "", "open_time": "尚无营业时间", "shop_lat": "28.6571402332", "shop_name": "桃花酒坊", "shop_lng": "121.435125104", "shop_tag": "", "street_address": "东环大道196号君悦大厦b幢1楼"}
{"shop_tel": "无", "open_time": "尚无营业时间", "shop_lat": "28.6409469999821", "shop_name": "镇静庙", "shop_lng": "121.45695", "shop_tag": "", "street_address": "疏港大道"}
{"shop_tel": "无", "open_time": "尚无营业时间", "shop_lat": "28.1007260000399", "shop_name": "薄利川味小吃", "shop_lng": "121.269426000093", "shop_tag": "", "street_address": "双龙路"}
{"shop_tel": "", "open_time": "尚无营业时间", "shop_lat": "36.63626442", "shop_name": "温州海鲜楼", "shop_lng": "101.7593499", "shop_tag": "", "street_address": "胜利路81号(交通巷北口)"}
{"shop_tel": "无", "open_time": "尚无营业时间", "shop_lat": "36.6341028653723", "shop_name": "尕晋娃羊肠面", "shop_lng": "101.761465796894", "shop_tag": "", "street_address": "东交通巷副1-7号旁"}
{"shop_tel": "无", "open_time": "尚无营业时间", "shop_lat": "26.5876216", "shop_name": "丝之味(毓秀路店)", "shop_lng": "106.7104177", "shop_tag": "", "street_address": "毓秀路(近云岩广场)"}
{"shop_tel": "", "open_time": "10:30-21:30", "shop_lat": "26.59896999783", "shop_name": "好来屋披萨", "shop_lng": "106.63263617622", "shop_tag": "", "street_address": "世纪城金源街80号"}
{"shop_tel": "", "open_time": "尚无营业时间", "shop_lat": "26.3310639", "shop_name": "谢家百年糕粑", "shop_lng": "106.68594", "shop_tag": "", "street_address": "青岩古镇老街"}
{"shop_tel": "", "open_time": "10:00-21:00", "shop_lat": "30.588516", "shop_name": "泰芭瑅海鲜火锅(江汉路黄石路店)", "shop_lng": "114.28949", "shop_tag": "", "street_address": "京汉大道黄石路34号(中国银行旁)"}
{"shop_tel": "", "open_time": "11:00--21:00", "shop_lat": "30.564538", "shop_name": "楚天粤海国际大酒店香榭咖啡厅", "shop_lng": "114.3637466", "shop_tag": "", "street_address": "东湖路181号楚天粤海国际大酒店内(近省博物馆)"}
{"shop_tel": "", "open_time": "12:00-24:00", "shop_lat": "30.57076973", "shop_name": "烫锅鲜砂锅串串(铜人像店)", "shop_lng": "114.2854398", "shop_tag": "", "street_address": "民族路136号铜人像旁"}
{"shop_tel": "", "open_time": "9:00-21:30", "shop_lat": "36.187772649044", "shop_name": "韩尚道 韩式美食小吃", "shop_lng": "117.127882213631", "shop_tag": "", "street_address": "财源街金桥服装城对面"}
{"shop_tel": "", "open_time": "8：00-11：00  13:30-17:00", "shop_lat": "36.195481", "shop_name": "今磨房", "shop_lng": "117.08801", "shop_tag": "", "street_address": "东岳大街市政广场易初莲花东街步行街北头"}
{"shop_tel": "", "open_time": "11:00-14:00,17:00-21:00", "shop_lat": "36.19562531", "shop_name": "汉釜宫韩式纸上烤肉自助餐厅", "shop_lng": "117.0883626", "shop_tag": "", "street_address": "正大步行街市政广场2楼(东岳IC卡对面)"}
{"shop_tel": "", "open_time": "尚无营业时间", "shop_lat": "28.65341", "shop_name": "史迈克蛋糕店(商业街店)", "shop_lng": "121.43846", "shop_tag": "", "street_address": "商业街经中路138号(实验小学东30米)"}
{"shop_tel": "", "open_time": "中餐：11点-13点晚餐：17点-20点", "shop_lat": "28.12697", "shop_name": "港轩广式烧腊便当店", "shop_lng": "121.229482", "shop_tag": "", "street_address": "新城中路100号(近玉环贪吃鱼人)"}
{"shop_tel": "", "open_time": "尚无营业时间", "shop_lat": "36.6352644975748", "shop_name": "渔家洋海鲜河鲜", "shop_lng": "101.757758951961", "shop_tag": "", "street_address": "西交通巷中段南侧"}
{"shop_tel": "无", "open_time": "尚无营业时间", "shop_lat": "36.6319414", "shop_name": "西西小熊", "shop_lng": "101.7625732", "shop_tag": "", "street_address": "商业巷北市场1119号(近浴池)"}
{"shop_tel": "", "open_time": "尚无营业时间", "shop_lat": "26.586202", "shop_name": "盘江食府", "shop_lng": "106.706386", "shop_tag": "", "street_address": "黔灵西路146号"}
{"shop_tel": "", "open_time": "早上11点到晚上九点", "shop_lat": "26.607199978299", "shop_name": "特制香辣砂锅鱼", "shop_lng": "106.63200005425", "shop_tag": "", "street_address": "金阳新区世纪城金源街354号"}
{"shop_tel": "无", "open_time": "尚无营业时间", "shop_lat": "26.3320222481344", "shop_name": "金必轩", "shop_lng": "106.688157908075", "shop_tag": "", "street_address": "北明清街41号"}
{"shop_tel": "", "open_time": "11:00--21:00", "shop_lat": "30.578783", "shop_name": "香贵几何云贵风情餐厅", "shop_lng": "114.291337", "shop_tag": "", "street_address": "中山大道818号新佳丽时尚购物广场4楼(王府井百货、平安大厦)"}
{"shop_tel": "", "open_time": "中午：11:00 - 13:30下午：17:30 - 21:30", "shop_lat": "30.5836600000475", "shop_name": "汉和京都日本料理店", "shop_lng": "114.284829999981", "shop_tag": "", "street_address": "汉口京汉大道826号前进五路(近江汉大道)"}
{"shop_tel": "", "open_time": "11:30-21:30", "shop_lat": "30.608149", "shop_name": "黛樱料理(武汉天地店)", "shop_lng": "114.31068", "shop_tag": "", "street_address": "芦沟桥路48号武汉天地1期3号楼(黄记煌餐厅)"}
{"shop_tel": "", "open_time": "10:00-次日01:00", "shop_lat": "30.5705254", "shop_name": "老五烧烤(大兴路店)", "shop_lng": "114.292199", "shop_tag": "", "street_address": "大兴路91号(黄陂街民权路口)"}
{"shop_tel": "", "open_time": "10:00-21:00", "shop_lat": "36.22147", "shop_name": "熙顺紫菜包饭", "shop_lng": "117.040068", "shop_tag": "", "street_address": "泰山学院本部小吃街中段"}
{"shop_tel": "", "open_time": "尚无营业时间", "shop_lat": "36.196471", "shop_name": "众鑫老济南把子肉", "shop_lng": "117.082074", "shop_tag": "", "street_address": "东岳大街157号(儒家商务宾馆一楼)"}
{"shop_tel": "", "open_time": "9:00--19:30", "shop_lat": "36.1936", "shop_name": "遵义羊肉粉", "shop_lng": "117.076", "shop_tag": "", "street_address": "乐园小区东门斜对过(康都炸肉北临)"}
{"shop_tel": "", "open_time": "尚无营业时间", "shop_lat": "36.20251", "shop_name": "东尊华美达大酒店", "shop_lng": "117.097335", "shop_tag": "", "street_address": "迎胜东路16号东尊华美达酒店1楼"}
{"shop_tel": "", "open_time": "9:30-21:00", "shop_lat": "28.65546908", "shop_name": "朵朵烘焙体验馆", "shop_lng": "121.4408102", "shop_tag": "", "street_address": "商业街开元路111-113号"}
{"shop_tel": "", "open_time": "09:30-21:30", "shop_lat": "28.642451985677", "shop_name": "K客叔叔现烘起司蛋糕(黄岩店)", "shop_lng": "121.26375976562", "shop_tag": "", "street_address": "黄岩劳动南路102号"}
{"shop_tel": "", "open_time": "每天", "shop_lat": "28.1284199999461", "shop_name": "喜梦客", "shop_lng": "121.233559999703", "shop_tag": "", "street_address": "长治路29号(近垟青商业大厦)"}
{"shop_tel": "无", "open_time": "尚无营业时间", "shop_lat": "36.6356525516762", "shop_name": "岚山海鲜", "shop_lng": "101.756581902961", "shop_tag": "", "street_address": "西交通巷5号"}
{"shop_tel": "", "open_time": "早上七点，下午二点", "shop_lat": "36.62868", "shop_name": "清真老东关包子店", "shop_lng": "101.7559", "shop_tag": "", "street_address": "交通巷"}
{"shop_tel": "", "open_time": "10:00~22:00", "shop_lat": "26.56225462566", "shop_name": "和元酒家", "shop_lng": "106.728978529572", "shop_tag": "", "street_address": "市南路81号电信商务大厦1、3、4楼(油榨街加油站对面)"}
{"shop_tel": "", "open_time": "10：00-22:00", "shop_lat": "26.6073839778", "shop_name": "何记砂锅腊猪脚", "shop_lng": "106.631914201", "shop_tag": "", "street_address": "世纪城金源街369号"}
{"shop_tel": "", "open_time": "08：00~18：00", "shop_lat": "26.51773", "shop_name": "埃山遵义虾子羊肉粉", "shop_lng": "106.70018", "shop_tag": "", "street_address": "小河区淮河路8号(鸿悦酒楼旁菜场入口处)(鸿悦酒楼)"}
{"shop_tel": "", "open_time": "10:00--22:00", "shop_lat": "30.578813", "shop_name": "百艳青花无国界餐厅(新佳丽店)", "shop_lng": "114.29079", "shop_tag": "", "street_address": "中山大道818号新佳丽购物广场3楼"}
{"shop_tel": "", "open_time": "周一至周四11:00-15:00,17:00-22:00 周五至周日11:00-15:00,20:30-22:30", "shop_lat": "30.5960046", "shop_name": "大渔铁板烧(花园道店)", "shop_lng": "114.2644553", "shop_tag": "", "street_address": "青年路308号花园道商业街A-112号"}
{"shop_tel": "", "open_time": "午餐11:30am--2:30pm  晚餐5:00pm--9:00pm", "shop_lat": "30.6154691", "shop_name": "澳辰北美风格日式料理(大武汉1911店)", "shop_lng": "114.2630192", "shop_tag": "", "street_address": "新华西路595号大武汉1911B栋2-3（汉晶宫水疗会馆后面仟吉西饼楼上）(华南海鲜城对面, 汉晶宫后面)"}
{"shop_tel": "", "open_time": "尚无营业时间", "shop_lat": "30.5854469999176", "shop_name": "赛百味(万松园店)", "shop_lng": "114.268045000006", "shop_tag": "", "street_address": "武汉市万松园路100号西园商业街中庭"}
{"shop_tel": "", "open_time": "尚无营业时间", "shop_lat": "36.220678", "shop_name": "云南过桥米线", "shop_lng": "117.040438", "shop_tag": "", "street_address": "泰山学院本部小吃街中段(物美价廉超市东临)"}
{"shop_tel": "无", "open_time": "尚无营业时间", "shop_lat": "36.19585530599", "shop_name": "麦乐多快餐", "shop_lng": "117.08200276693", "shop_tag": "", "street_address": "东岳大街155号"}
{"shop_tel": "", "open_time": "尚无营业时间", "shop_lat": "36.1929", "shop_name": "月亮烤肉拌饭", "shop_lng": "117.074692", "shop_tag": "", "street_address": "长城路帝苑酒店旁小吃街"}
{"shop_tel": "", "open_time": "11:30-14:00,17:30-20:30", "shop_lat": "36.176861", "shop_name": "胡吃海喝自助火锅酱骨王", "shop_lng": "117.149853", "shop_tag": "", "street_address": "南湖大街与温泉路交叉口向西50米路南"}
{"shop_tel": "无", "open_time": "营业时间：9:00-21:00", "shop_lat": "28.6513", "shop_name": "麦克蛋糕", "shop_lng": "121.432135", "shop_tag": "", "street_address": "市府大道253号爱华曙光大厦406室"}
{"shop_tel": "", "open_time": "尚无营业时间", "shop_lat": "28.6424950000119", "shop_name": "麦语之轩(3店)", "shop_lng": "121.26806200007", "shop_tag": "", "street_address": "横街东路65号"}
{"shop_tel": "", "open_time": "尚无营业时间", "shop_lat": "28.1280179999461", "shop_name": "五香包点", "shop_lng": "121.233670999703", "shop_tag": "", "street_address": "长治路附近"}
{"shop_tel": "", "open_time": "尚无营业时间", "shop_lat": "36.635564", "shop_name": "小窦土火锅农家小炒", "shop_lng": "101.756839", "shop_tag": "", "street_address": "西交通巷1号"}
{"shop_tel": "无", "open_time": "尚无营业时间", "shop_lat": "36.628762749566", "shop_name": "中国移动24小时自助服务厅(西关大街营业厅)", "shop_lng": "101.75543836806", "shop_tag": "", "street_address": "西关大街56号"}
{"shop_tel": "", "open_time": "尚无营业时间", "shop_lat": "26.5606449648967", "shop_name": "刘老四百鸡宴酒楼", "shop_lng": "106.73013165304", "shop_tag": "", "street_address": "市南路168号"}
{"shop_tel": "", "open_time": "10:00-0:00", "shop_lat": "26.60748", "shop_name": "鹏亮鸭脖（世纪城店）", "shop_lng": "106.63199", "shop_tag": "", "street_address": "金阳世纪城金源街380号"}
{"shop_tel": "无", "open_time": "尚无营业时间", "shop_lat": "26.525268", "shop_name": "品味轩", "shop_lng": "106.702907", "shop_tag": "", "street_address": "黔江路55号"}
{"shop_tel": "", "open_time": "午市：11:00-14:00，晚市：17:00-22:00", "shop_lat": "30.580907", "shop_name": "上井精致料理(武汉国际广场店)", "shop_lng": "114.27067", "shop_tag": "", "street_address": "解放大道690号武汉国际广场B座"}
{"shop_tel": "", "open_time": "11:00-21:30", "shop_lat": "30.5241932235493", "shop_name": "味藏日本料理馆(百瑞景店)", "shop_lng": "114.335440814819", "shop_tag": "", "street_address": "宝通寺路(近楚甲时尚)"}
{"shop_tel": "", "open_time": "10:00-24:00", "shop_lat": "30.60982", "shop_name": "万达国际电影城(菱角湖店)", "shop_lng": "114.268599", "shop_tag": "", "street_address": "唐家墩路5号菱角湖万达广场4楼(新华西路口)"}
{"shop_tel": "无", "open_time": "06:00 - 09:00", "shop_lat": "36.18548805", "shop_name": "丽江源米线", "shop_lng": "117.0561855", "shop_tag": "", "street_address": "光彩大市场西侧"}
{"shop_tel": "无", "open_time": "尚无营业时间", "shop_lat": "36.1943189997795", "shop_name": "杭州小笼包", "shop_lng": "117.082457999818", "shop_tag": "", "street_address": "东岳大街155号(财源街道乐园社区卫生服务站南)"}
{"shop_tel": "", "open_time": "尚无营业时间", "shop_lat": "36.183647", "shop_name": "鸿运龙虾", "shop_lng": "117.053267", "shop_tag": "", "street_address": "光彩大市场一区,市场西路中段"}
{"shop_tel": "", "open_time": "10:00至23:00", "shop_lat": "36.176691", "shop_name": "泰山蘑菇鸡", "shop_lng": "117.149344", "shop_tag": "", "street_address": "南湖大街东首路南"}
{"shop_tel": "", "open_time": "每天 8:00-24:00", "shop_lat": "28.6504", "shop_name": "川湘面馆", "shop_lng": "121.4312", "shop_tag": "", "street_address": "塘岸菜场旁"}
{"shop_tel": "", "open_time": "尚无营业时间", "shop_lat": "28.6460569999919", "shop_name": "凯福西饼屋", "shop_lng": "121.264746999841", "shop_tag": "", "street_address": "青年东路127号(黄岩百货办公楼东)"}
{"shop_tel": "无", "open_time": "尚无营业时间", "shop_lat": "28.1127530001072", "shop_name": "塘里美食店", "shop_lng": "121.245121000093", "shop_tag": "", "street_address": "珠港大道"}
{"shop_tel": "无", "open_time": "尚无营业时间", "shop_lat": "36.6194460000143", "shop_name": "大西北餐饮", "shop_lng": "101.774412999898", "shop_tag": "", "street_address": "长江路79号"}
{"shop_tel": "", "open_time": "尚无营业时间", "shop_lat": "36.629764", "shop_name": "北京汉丽轩自助烤肉超市(青海剧场店)", "shop_lng": "101.762232", "shop_tag": "", "street_address": "五四大街31号青海剧场1楼"}
{"shop_tel": "", "open_time": "尚无营业时间", "shop_lat": "26.58104933", "shop_name": "大雅园酒楼", "shop_lng": "106.7194293", "shop_tag": "", "street_address": "文昌北路102号"}
{"shop_tel": "", "open_time": "尚无营业时间", "shop_lat": "26.525164", "shop_name": "五吉咖啡馆", "shop_lng": "106.70285", "shop_tag": "", "street_address": "云凯熙园五栋B单元19楼(北京华联楼上)"}
{"shop_tel": "", "open_time": "工作日8：00-22：00  周末8：00-23：00", "shop_lat": "30.578962", "shop_name": "COSTA COFFEE(K11新食艺店)", "shop_lng": "114.264812", "shop_tag": "", "street_address": "解放大道628号K11新食艺1楼"}
{"shop_tel": "", "open_time": "尚无营业时间", "shop_lat": "30.52277", "shop_name": "D5 Club", "shop_lng": "114.335922", "shop_tag": "", "street_address": "武珞路586号"}
{"shop_tel": "", "open_time": "10：00--22：00", "shop_lat": "30.60982", "shop_name": "面包新语(菱角湖万达店)", "shop_lng": "114.268599", "shop_tag": "", "street_address": "唐家墩路5号菱角湖万达广场1楼1-31商铺(新华西路口、近肯德基)"}
{"shop_tel": "无", "open_time": "每天 8: 00 -- 22: 00", "shop_lat": "36.183841", "shop_name": "台湾手抓饼", "shop_lng": "117.067893", "shop_tag": "", "street_address": "凤凰路(近科大西校)"}
{"shop_tel": "", "open_time": "尚无营业时间", "shop_lat": "36.1940149997795", "shop_name": "民意香辣水煮鱼馆", "shop_lng": "117.082473999818", "shop_tag": "", "street_address": "康复路干休所向西30米"}
{"shop_tel": "无", "open_time": "尚无营业时间", "shop_lat": "36.183448000084", "shop_name": "聚鑫园", "shop_lng": "117.053290000377", "shop_tag": "", "street_address": "市场西路"}
{"shop_tel": "", "open_time": "10:00-22:00", "shop_lat": "36.1689449999669", "shop_name": "訾家铁锅炒大鹅", "shop_lng": "117.151000000002", "shop_tag": "", "street_address": "温泉路南首 铁路桥南300米路东"}
{"shop_tel": "无", "open_time": "尚无营业时间", "shop_lat": "28.64662657", "shop_name": "小三元", "shop_lng": "121.2666198", "shop_tag": "", "street_address": "天长北路9号(近青年路)"}
{"shop_tel": "", "open_time": "尚无营业时间", "shop_lat": "28.6466465099323", "shop_name": "可可奶茶坊", "shop_lng": "121.266634567014", "shop_tag": "", "street_address": "天长北路17号"}
{"shop_tel": "", "open_time": "尚无营业时间", "shop_lat": "28.1240410000267", "shop_name": "七里香", "shop_lng": "121.229555999703", "shop_tag": "", "street_address": "城中路102号"}
{"shop_tel": "无", "open_time": "尚无营业时间", "shop_lat": "36.6086220000861", "shop_name": "西安杨獬羊肉泡馍馆", "shop_lng": "101.778804000194", "shop_tag": "", "street_address": "劳动巷2号(近南山路)"}
{"shop_tel": "", "open_time": "尚无营业时间", "shop_lat": "36.6369940000275", "shop_name": "巴西烤肉(城西店)", "shop_lng": "101.758896999974", "shop_tag": "", "street_address": "胜利路81号颐高数码广场4楼"}
{"shop_tel": "", "open_time": "尚无营业时间", "shop_lat": "26.59162638", "shop_name": "百灵阿一鲍鱼", "shop_lng": "106.7154296", "shop_tag": "", "street_address": "友谊路198号(近贵州日报社)"}
{"shop_tel": "", "open_time": "尚无营业时间", "shop_lat": "26.5862736", "shop_name": "盛意食府", "shop_lng": "106.7200392", "shop_tag": "", "street_address": "宝山北路省医专家楼"}
{"shop_tel": "", "open_time": "10:00——22：00", "shop_lat": "26.52181105", "shop_name": "可可星咖啡馆", "shop_lng": "106.7024", "shop_tag": "", "street_address": "黄河路42号海纳广场碧园影城旁(44医院对面)"}
{"shop_tel": "无", "open_time": "尚无营业时间", "shop_lat": "26.52220696", "shop_name": "沃土咖啡", "shop_lng": "106.7054397", "shop_tag": "", "street_address": "长江路(近二十五中)"}
{"shop_tel": "", "open_time": "尚无营业时间", "shop_lat": "30.57882641", "shop_name": "鹿港小镇(武汉国际广场店)", "shop_lng": "114.2711303", "shop_tag": "", "street_address": "解放大道690号武汉国际广场B座7楼"}
{"shop_tel": "", "open_time": "17:00-02:00", "shop_lat": "30.5857090000028", "shop_name": "Helens西餐吧(武汉天津路店)", "shop_lng": "114.296391999981", "shop_tag": "", "street_address": "天津路52-56号(吉庆街)"}
{"shop_tel": "", "open_time": "10:30-21:30", "shop_lat": "30.60982", "shop_name": "Mr.Lai 台北脆皮鸡排(菱角湖万达店)", "shop_lng": "114.268599", "shop_tag": "", "street_address": "唐家墩路5号菱角湖万达广场室外步行街B081号(新华西路口)"}
{"shop_tel": "", "open_time": "尚无营业时间", "shop_lat": "36.184095", "shop_name": "海底食界轰炸大鱿鱼", "shop_lng": "117.067899", "shop_tag": "", "street_address": "科大西校正门北行20米路西"}
{"shop_tel": "无", "open_time": "尚无营业时间", "shop_lat": "36.19886", "shop_name": "久阳川味馆", "shop_lng": "117.14876", "shop_tag": "", "street_address": "岱道庵路162-13号"}
{"shop_tel": "", "open_time": "尚无营业时间", "shop_lat": "36.185445", "shop_name": "齐鲁漆业", "shop_lng": "117.056122", "shop_tag": "", "street_address": "光彩大市场中心区4栋4号(近泰山大街)"}
{"shop_tel": "无", "open_time": "尚无营业时间", "shop_lat": "36.1847979999669", "shop_name": "泰达顺酒楼", "shop_lng": "117.151353000409", "shop_tag": "", "street_address": "温泉路828号"}
{"shop_tel": "无", "open_time": "尚无营业时间", "shop_lat": "28.64753612", "shop_name": "热火功夫麻辣烫", "shop_lng": "121.2668899", "shop_tag": "", "street_address": "天长北路42号"}
{"shop_tel": "", "open_time": "每天 7:00-23:00", "shop_lat": "28.64770075", "shop_name": "布兰妮", "shop_lng": "121.2631049", "shop_tag": "", "street_address": "黄岩劳动北路57-59号(沈宝山)"}
{"shop_tel": "无", "open_time": "尚无营业时间", "shop_lat": "28.1231700000267", "shop_name": "正宗兰州牛肉拉面", "shop_lng": "121.228949999703", "shop_tag": "", "street_address": "城中路97号"}
{"shop_tel": "无", "open_time": "尚无营业时间", "shop_lat": "36.6087030000099", "shop_name": "南轩小炒", "shop_lng": "101.778603999813", "shop_tag": "", "street_address": "南山路23号"}
{"shop_tel": "", "open_time": "每天 11:30 - 24:00", "shop_lat": "36.63725", "shop_name": "麦田粤式火锅", "shop_lng": "101.75846", "shop_tag": "", "street_address": "胜利路81号(近华润万家超市)"}
{"shop_tel": "无", "open_time": "尚无营业时间", "shop_lat": "27.063082", "shop_name": "韩国纸上烤肉馆", "shop_lng": "106.966945", "shop_tag": "", "street_address": "环城北路与开州大道交汇处附近"}
{"shop_tel": "", "open_time": "尚无营业时间", "shop_lat": "26.586885", "shop_name": "老东粥皇茶餐厅(合群路店)", "shop_lng": "106.708642", "shop_tag": "", "street_address": "合群路31号"}
{"shop_tel": "", "open_time": "24小时", "shop_lat": "26.52467807", "shop_name": "可乐8娱乐城", "shop_lng": "106.7028496", "shop_tag": "", "street_address": "黔江路云凯熙园3楼(苏宁电器旁)"}
{"shop_tel": "", "open_time": "尚无营业时间", "shop_lat": "26.51441721", "shop_name": "王小姐的店咖啡会所", "shop_lng": "106.700184", "shop_tag": "", "street_address": "黄河路225号女人天地商场2楼(近富华超市)"}
{"shop_tel": "", "open_time": "19:00-次日01:00", "shop_lat": "30.5853783", "shop_name": "Denim Club", "shop_lng": "114.2967025", "shop_tag": "", "street_address": "天津路48号(HELENS酒吧旁)"}
{"shop_tel": "", "open_time": "10:00~21:00", "shop_lat": "30.60982", "shop_name": "彼特大叔(菱角湖万达店)", "shop_lng": "114.268599", "shop_tag": "", "street_address": "唐家墩路5号菱角湖万达广场室外步行街D077"}
{"shop_tel": "无", "open_time": "尚无营业时间", "shop_lat": "36.1843749999318", "shop_name": "正宗范镇油酥烧饼", "shop_lng": "117.06785499997", "shop_tag": "", "street_address": "凤凰路"}
{"shop_tel": "", "open_time": "10:00-23:00", "shop_lat": "36.202181", "shop_name": "龙门客栈小酒馆", "shop_lng": "117.149542", "shop_tag": "", "street_address": "泰前医院路口东66米路北"}
{"shop_tel": "无", "open_time": "尚无营业时间", "shop_lat": "36.187152000084", "shop_name": "如意酒楼", "shop_lng": "117.04440499992", "shop_tag": "", "street_address": "府东路(岱岳区人民政府信访复查办公室东)"}
{"shop_tel": "", "open_time": "尚无营业时间", "shop_lat": "36.1849139999669", "shop_name": "陆氏风干鸡专卖店老店", "shop_lng": "117.151957000409", "shop_tag": "", "street_address": "温泉路828号"}
{"shop_tel": "无", "open_time": "尚无营业时间", "shop_lat": "28.6458870000075", "shop_name": "眼镜面碎", "shop_lng": "121.261261000231", "shop_tag": "", "street_address": "青年西路37号"}
{"shop_tel": "", "open_time": "每天 8:00-23:00", "shop_lat": "28.64658", "shop_name": "达波美琪", "shop_lng": "121.26325", "shop_tag": "", "street_address": "黄岩大厦1楼(青年西路孔园对面)"}
{"shop_tel": "无", "open_time": "尚无营业时间", "shop_lat": "28.5608270000051", "shop_name": "兰州牛肉拉面", "shop_lng": "121.390654999838", "shop_tag": "", "street_address": "新安南街532号"}
{"shop_tel": "无", "open_time": "尚无营业时间", "shop_lat": "36.6075620000861", "shop_name": "君知味餐馆", "shop_lng": "101.778074000194", "shop_tag": "", "street_address": "劳动路2-24号"}
{"shop_tel": "", "open_time": "尚无营业时间", "shop_lat": "36.6293", "shop_name": "涮之先火锅", "shop_lng": "101.760251", "shop_tag": "", "street_address": "力盟商业巷步行街3号楼3楼"}
{"shop_tel": "无", "open_time": "尚无营业时间", "shop_lat": "27.063191", "shop_name": "客满堂火锅店", "shop_lng": "106.960355", "shop_tag": "", "street_address": "环城北路38号"}
{"shop_tel": "", "open_time": "尚无营业时间", "shop_lat": "26.58575226", "shop_name": "小吕烤肉", "shop_lng": "106.7124031", "shop_tag": "", "street_address": "中华北路36号(近宜北町)"}
{"shop_tel": "", "open_time": "尚无营业时间", "shop_lat": "26.398948", "shop_name": "祥利娱乐量贩KTV", "shop_lng": "106.673743", "shop_tag": "", "street_address": "清溪路三五三七厂公交车加气站旁"}
{"shop_tel": "无", "open_time": "尚无营业时间", "shop_lat": "26.5140540927488", "shop_name": "街客", "shop_lng": "106.700467669934", "shop_tag": "", "street_address": "黄河路279号"}
{"shop_tel": "", "open_time": "20：30-03：00", "shop_lat": "30.58172914", "shop_name": "维多利亚酒吧", "shop_lng": "114.3004801", "shop_tag": "", "street_address": "沿江大道江滩36号(近江滩正大门景观楼)"}
{"shop_tel": "", "open_time": "11:00-21:00", "shop_lat": "30.61025809", "shop_name": "当年情港式餐厅(菱角湖万达店)", "shop_lng": "114.2700817", "shop_tag": "", "street_address": "唐家墩路5号菱角湖万达广场室内步行街3楼3-38-39号(新华西路口)"}
{"shop_tel": "无", "open_time": "尚无营业时间", "shop_lat": "36.1837479999318", "shop_name": "蜀王砂锅(凤凰路店)", "shop_lng": "117.06824399997", "shop_tag": "", "street_address": "凤凰路"}
{"shop_tel": "", "open_time": "尚无营业时间", "shop_lat": "36.201931", "shop_name": "香酥馍", "shop_lng": "117.149293", "shop_tag": "", "street_address": "向阳小区十字路口往东88米路北"}
{"shop_tel": "无", "open_time": "尚无营业时间", "shop_lat": "36.187183000084", "shop_name": "佳运大酒店", "shop_lng": "117.04500099992", "shop_tag": "", "street_address": "府东路"}
{"shop_tel": "无", "open_time": "尚无营业时间", "shop_lat": "36.1627199999669", "shop_name": "好功夫骨汤麻辣烫", "shop_lng": "117.151993000459", "shop_tag": "", "street_address": "泮河大街"}
{"shop_tel": "无", "open_time": "尚无营业时间", "shop_lat": "28.6458670000075", "shop_name": "方建啤酒老鸭", "shop_lng": "121.260626000231", "shop_tag": "", "street_address": "青年西路47号"}
{"shop_tel": "无", "open_time": "尚无营业时间", "shop_lat": "28.6470509999919", "shop_name": "裙香姜汁", "shop_lng": "121.266952999841", "shop_tag": "", "street_address": "天长北路30号"}
{"shop_tel": "无", "open_time": "尚无营业时间", "shop_lat": "28.8462100000438", "shop_name": "西北穆斯林饭店", "shop_lng": "121.121415000073", "shop_tag": "", "street_address": "东门后街16号"}
{"shop_tel": "无", "open_time": "尚无营业时间", "shop_lat": "36.6068510000861", "shop_name": "尕撒拉面食馆", "shop_lng": "101.777278000194", "shop_tag": "", "street_address": "劳动巷6-2号(玉香警苑东北)"}
{"shop_tel": "", "open_time": "尚无营业时间", "shop_lat": "36.6294450000275", "shop_name": "阿荣春饼盖浇饭", "shop_lng": "101.760068999974", "shop_tag": "", "street_address": "五四大街37号"}
{"shop_tel": "无", "open_time": "尚无营业时间", "shop_lat": "27.062759", "shop_name": "金顿酒家", "shop_lng": "106.960261", "shop_tag": "", "street_address": "环城北路29号"}
{"shop_tel": "", "open_time": "PM13:30－AM2:00", "shop_lat": "26.5854999999484", "shop_name": "Suede Bar(山羊皮酒吧店)", "shop_lng": "106.711980000108", "shop_tag": "", "street_address": "中华北路7号(喷水池新大新路口)"}
{"shop_tel": "", "open_time": "12:30-07:00", "shop_lat": "26.5986160000021", "shop_name": "新天地五星级歌城(金阳店)", "shop_lng": "106.625415999993", "shop_tag": "", "street_address": "北京西路世纪金源购物中心C栋B2楼"}
{"shop_tel": "无", "open_time": "尚无营业时间", "shop_lat": "26.517747", "shop_name": "怡果鲜", "shop_lng": "106.696275", "shop_tag": "", "street_address": "淮河路211号"}
{"shop_tel": "无", "open_time": "尚无营业时间", "shop_lat": "26.512155", "shop_name": "百顺蛋糕", "shop_lng": "106.686847", "shop_tag": "", "street_address": "南二环(贵阳市城乡规划局小河分局北)"}
{"shop_tel": "", "open_time": "20：00~4:00", "shop_lat": "30.53651", "shop_name": "Cloud bar", "shop_lng": "114.3476", "shop_tag": "", "street_address": "八一路98号帅府饭店楼下(近武汉大学)"}
{"shop_tel": "", "open_time": "11:00——2:0017:00——21:00", "shop_lat": "30.6135815", "shop_name": "上品天椒(菱角湖店)", "shop_lng": "114.2673215", "shop_tag": "", "street_address": "马场路138号(万科圆方旁)"}
{"shop_tel": "无", "open_time": "尚无营业时间", "shop_lat": "36.1834499999318", "shop_name": "博山肉烧饼", "shop_lng": "117.06820699997", "shop_tag": "", "street_address": "凤凰路"}
{"shop_tel": "无", "open_time": "尚无营业时间", "shop_lat": "36.2022799999669", "shop_name": "粮店快餐", "shop_lng": "117.148927999952", "shop_tag": "", "street_address": "擂鼓石大街"}
{"shop_tel": "", "open_time": "尚无营业时间", "shop_lat": "36.187543000084", "shop_name": "屈府酒楼", "shop_lng": "117.04503299992", "shop_tag": "", "street_address": "府东路"}
